{"info":{"statuscode":0,"copyright":{"text":"\u00A9 2020 MapQuest, Inc.","imageUrl":"http://api.mqcdn.com/res/mqlogo.gif","imageAltText":"\u00A9 2020 MapQuest, Inc."},"messages":[]},"options":{"maxResults":1,"thumbMaps":false,"ignoreLatLngInput":false},"results":[{"providedLocation":{"location":"5520 PENNINGTON AVE, Baltimore MD"},"locations":[{"street":"5520 Pennington Ave","adminArea6":"","adminArea6Type":"Neighborhood","adminArea5":"Curtis Bay","adminArea5Type":"City","adminArea4":"Anne Arundel","adminArea4Type":"County","adminArea3":"MD","adminArea3Type":"State","adminArea1":"US","adminArea1Type":"Country","postalCode":"21226-1624","geocodeQualityCode":"P1AAA","geocodeQuality":"POINT","dragPoint":false,"sideOfStreet":"R","linkId":"r21330163|p189108999|n28411285","unknownInput":"","type":"s","latLng":{"lat":39.216979,"lng":-76.587684},"displayLatLng":{"lat":39.21696,"lng":-76.587902}}]},{"providedLocation":{"location":"6640 HOLABIRD AVE, Baltimore MD"},"locations":[{"street":"6640 Holabird Ave","adminArea6":"","adminArea6Type":"Neighborhood","adminArea5":"Baltimore","adminArea5Type":"City","adminArea4":"Baltimore City","adminArea4Type":"County","adminArea3":"MD","adminArea3Type":"State","adminArea1":"US","adminArea1Type":"Country","postalCode":"21224-6301","geocodeQualityCode":"P1AAA","geocodeQuality":"POINT","dragPoint":false,"sideOfStreet":"L","linkId":"r21001798|p186055846|n27950743","unknownInput":"","type":"s","latLng":{"lat":39.272519,"lng":-76.53198},"displayLatLng":{"lat":39.272763,"lng":-76.53199}}]},{"providedLocation":{"location":"23 CROSS ST, Baltimore MD"},"locations":[{"street":"[601 - 631] Cross St","adminArea6":"","adminArea6Type":"Neighborhood","adminArea5":"Brooklyn","adminArea5Type":"City","adminArea4":"Anne Arundel","adminArea4Type":"County","adminArea3":"MD","adminArea3Type":"State","adminArea1":"US","adminArea1Type":"Country","postalCode":"21225","geocodeQualityCode":"B3AAA","geocodeQuality":"STREET","dragPoint":false,"sideOfStreet":"R","linkId":"rnr3131365|i27637771","unknownInput":"","type":"s","latLng":{"lat":39.222904,"lng":-76.603155},"displayLatLng":{"lat":39.22272,"lng":-76.603077}}]},{"providedLocation":{"location":"1635 FLEET ST, Baltimore MD"},"locations":[{"street":"1635 Fleet St","adminArea6":"","adminArea6Type":"Neighborhood","adminArea5":"Baltimore","adminArea5Type":"City","adminArea4":"Baltimore City","adminArea4Type":"County","adminArea3":"MD","adminArea3Type":"State","adminArea1":"US","adminArea1Type":"Country","postalCode":"21231-2931","geocodeQualityCode":"P1AAA","geocodeQuality":"POINT","dragPoint":false,"sideOfStreet":"R","linkId":"r23061683|p185799219|n30705560","unknownInput":"","type":"s","latLng":{"lat":39.284529,"lng":-76.594057},"displayLatLng":{"lat":39.284384,"lng":-76.594042}}]},{"providedLocation":{"location":"1184 NANTICOKE ST, Baltimore MD"},"locations":[{"street":"1184 Nanticoke St","adminArea6":"","adminArea6Type":"Neighborhood","adminArea5":"Baltimore","adminArea5Type":"City","adminArea4":"Baltimore City","adminArea4Type":"County","adminArea3":"MD","adminArea3Type":"State","adminArea1":"US","adminArea1Type":"Country","postalCode":"21230-1919","geocodeQualityCode":"P1AAA","geocodeQuality":"POINT","dragPoint":false,"sideOfStreet":"R","linkId":"r22924541|p186719634|n30538954","unknownInput":"","type":"s","latLng":{"lat":39.280213,"lng":-76.631612},"displayLatLng":{"lat":39.280352,"lng":-76.631796}}]},{"providedLocation":{"location":"5723 YORK RD, Baltimore MD"},"locations":[{"street":"5723 York Rd","adminArea6":"","adminArea6Type":"Neighborhood","adminArea5":"Baltimore","adminArea5Type":"City","adminArea4":"Baltimore City","adminArea4Type":"County","adminArea3":"MD","adminArea3Type":"State","adminArea1":"US","adminArea1Type":"Country","postalCode":"21212-3606","geocodeQualityCode":"P1AAA","geocodeQuality":"POINT","dragPoint":false,"sideOfStreet":"R","linkId":"r23273535|p194230444|n31016168","unknownInput":"","type":"s","latLng":{"lat":39.360196,"lng":-76.609942},"displayLatLng":{"lat":39.360199,"lng":-76.609663}}]},{"providedLocation":{"location":"3308 GARRISON BLVD, Baltimore MD"},"locations":[{"street":"3308 Garrison Blvd","adminArea6":"","adminArea6Type":"Neighborhood","adminArea5":"Baltimore","adminArea5Type":"City","adminArea4":"Baltimore City","adminArea4Type":"County","adminArea3":"MD","adminArea3Type":"State","adminArea1":"US","adminArea1Type":"Country","postalCode":"21216-1322","geocodeQualityCode":"P1AAA","geocodeQuality":"POINT","dragPoint":false,"sideOfStreet":"L","linkId":"r20866212|p185746368|n27774285","unknownInput":"","type":"s","latLng":{"lat":39.327013,"lng":-76.682553},"displayLatLng":{"lat":39.327028,"lng":-76.682734}}]},{"providedLocation":{"location":"2501 WASHINGTON BLVD, Baltimore MD"},"locations":[{"street":"2501 Washington Blvd","adminArea6":"","adminArea6Type":"Neighborhood","adminArea5":"Baltimore","adminArea5Type":"City","adminArea4":"Baltimore City","adminArea4Type":"County","adminArea3":"MD","adminArea3Type":"State","adminArea1":"US","adminArea1Type":"Country","postalCode":"21230-1406","geocodeQualityCode":"P1AAA","geocodeQuality":"POINT","dragPoint":false,"sideOfStreet":"L","linkId":"r23203944|p196117438|n30898428","unknownInput":"","type":"s","latLng":{"lat":39.266782,"lng":-76.652287},"displayLatLng":{"lat":39.266691,"lng":-76.652147}}]},{"providedLocation":{"location":"2201 NORTH AVE, Baltimore MD"},"locations":[{"street":"[1301 - 1399] North Ave","adminArea6":"","adminArea6Type":"Neighborhood","adminArea5":"Halethorpe","adminArea5Type":"City","adminArea4":"Baltimore","adminArea4Type":"County","adminArea3":"MD","adminArea3Type":"State","adminArea1":"US","adminArea1Type":"Country","postalCode":"21227-2431","geocodeQualityCode":"B3AAA","geocodeQuality":"STREET","dragPoint":false,"sideOfStreet":"R","linkId":"rnr6464425|i30528360","unknownInput":"","type":"s","latLng":{"lat":39.251465,"lng":-76.69275},"displayLatLng":{"lat":39.25128,"lng":-76.692825}}]},{"providedLocation":{"location":"219 PRESIDENT ST, Baltimore MD"},"locations":[{"street":"219 President St","adminArea6":"","adminArea6Type":"Neighborhood","adminArea5":"Baltimore","adminArea5Type":"City","adminArea4":"Baltimore City","adminArea4Type":"County","adminArea3":"MD","adminArea3Type":"State","adminArea1":"US","adminArea1Type":"Country","postalCode":"21202-4421","geocodeQualityCode":"P1AAA","geocodeQuality":"POINT","dragPoint":false,"sideOfStreet":"L","linkId":"r23010247|p188011545|n30638393","unknownInput":"","type":"s","latLng":{"lat":39.286275,"lng":-76.603466},"displayLatLng":{"lat":39.286355,"lng":-76.603259}}]},{"providedLocation":{"location":"3600 BOSTON ST, Baltimore MD"},"locations":[{"street":"3600 Boston St","adminArea6":"","adminArea6Type":"Neighborhood","adminArea5":"Baltimore","adminArea5Type":"City","adminArea4":"Baltimore City","adminArea4Type":"County","adminArea3":"MD","adminArea3Type":"State","adminArea1":"US","adminArea1Type":"Country","postalCode":"21224-5726","geocodeQualityCode":"P1AAA","geocodeQuality":"POINT","dragPoint":false,"sideOfStreet":"L","linkId":"r21068174|p185288870|n28039789","unknownInput":"","type":"s","latLng":{"lat":39.277229,"lng":-76.56612},"displayLatLng":{"lat":39.278097,"lng":-76.566162}}]},{"providedLocation":{"location":"201 PRATT ST, Baltimore MD"},"locations":[{"street":"201 E Pratt St","adminArea6":"","adminArea6Type":"Neighborhood","adminArea5":"Baltimore","adminArea5Type":"City","adminArea4":"Baltimore City","adminArea4Type":"County","adminArea3":"MD","adminArea3Type":"State","adminArea1":"US","adminArea1Type":"Country","postalCode":"21202-1023","geocodeQualityCode":"P1BAA","geocodeQuality":"POINT","dragPoint":false,"sideOfStreet":"R","linkId":"r20849534|p274870287|n27757472","unknownInput":"","type":"s","latLng":{"lat":39.286611,"lng":-76.610968},"displayLatLng":{"lat":39.286225,"lng":-76.610956}}]},{"providedLocation":{"location":"1800 THAMES ST, Baltimore MD"},"locations":[{"street":"1800 Thames St","adminArea6":"","adminArea6Type":"Neighborhood","adminArea5":"Baltimore","adminArea5Type":"City","adminArea4":"Baltimore City","adminArea4Type":"County","adminArea3":"MD","adminArea3Type":"State","adminArea1":"US","adminArea1Type":"Country","postalCode":"21231-3509","geocodeQualityCode":"P1AAA","geocodeQuality":"POINT","dragPoint":false,"sideOfStreet":"L","linkId":"r21324399|p187809343|n28398877","unknownInput":"","type":"s","latLng":{"lat":39.281913,"lng":-76.59103},"displayLatLng":{"lat":39.282102,"lng":-76.591048}}]},{"providedLocation":{"location":"830 GUILFORD AVE, Baltimore MD"},"locations":[{"street":"830 Guilford Ave","adminArea6":"","adminArea6Type":"Neighborhood","adminArea5":"Baltimore","adminArea5Type":"City","adminArea4":"Baltimore City","adminArea4Type":"County","adminArea3":"MD","adminArea3Type":"State","adminArea1":"US","adminArea1Type":"Country","postalCode":"21202-3707","geocodeQualityCode":"P1AAA","geocodeQuality":"POINT","dragPoint":false,"sideOfStreet":"L","linkId":"r23143456|p187080967|n30815046","unknownInput":"","type":"s","latLng":{"lat":39.299503,"lng":-76.611637},"displayLatLng":{"lat":39.299456,"lng":-76.612224}}]},{"providedLocation":{"location":"601 CAROLINE ST, Baltimore MD"},"locations":[{"street":"601 S Caroline St","adminArea6":"","adminArea6Type":"Neighborhood","adminArea5":"Baltimore","adminArea5Type":"City","adminArea4":"Baltimore City","adminArea4Type":"County","adminArea3":"MD","adminArea3Type":"State","adminArea1":"US","adminArea1Type":"Country","postalCode":"21231-2814","geocodeQualityCode":"P1BAA","geocodeQuality":"POINT","dragPoint":false,"sideOfStreet":"L","linkId":"r21106674|p187184863|n28096890","unknownInput":"","type":"s","latLng":{"lat":39.284189,"lng":-76.59668},"displayLatLng":{"lat":39.284198,"lng":-76.596435}}]},{"providedLocation":{"location":"403 BALTIMORE ST, Baltimore MD"},"locations":[{"street":"[3601 - 3715] Baltimore St","adminArea6":"","adminArea6Type":"Neighborhood","adminArea5":"Halethorpe","adminArea5Type":"City","adminArea4":"Baltimore County","adminArea4Type":"County","adminArea3":"MD","adminArea3Type":"State","adminArea1":"US","adminArea1Type":"Country","postalCode":"21227","geocodeQualityCode":"B3AAA","geocodeQuality":"STREET","dragPoint":false,"sideOfStreet":"L","linkId":"rnr795729|i27320740","unknownInput":"","type":"s","latLng":{"lat":39.24223,"lng":-76.63103},"displayLatLng":{"lat":39.242273,"lng":-76.630835}}]},{"providedLocation":{"location":"720 Aliceanna st, Baltimore MD"},"locations":[{"street":"720 Aliceanna St","adminArea6":"","adminArea6Type":"Neighborhood","adminArea5":"Baltimore","adminArea5Type":"City","adminArea4":"Baltimore City","adminArea4Type":"County","adminArea3":"MD","adminArea3Type":"State","adminArea1":"US","adminArea1Type":"Country","postalCode":"21202-4339","geocodeQualityCode":"P1AAA","geocodeQuality":"POINT","dragPoint":false,"sideOfStreet":"L","linkId":"r20914650|p204184112|n27843029","unknownInput":"","type":"s","latLng":{"lat":39.283088,"lng":-76.602123},"displayLatLng":{"lat":39.283427,"lng":-76.602231}}]},{"providedLocation":{"location":"701 BOND ST, Baltimore MD"},"locations":[{"street":"701 S Bond St","adminArea6":"","adminArea6Type":"Neighborhood","adminArea5":"Baltimore","adminArea5Type":"City","adminArea4":"Baltimore City","adminArea4Type":"County","adminArea3":"MD","adminArea3Type":"State","adminArea1":"US","adminArea1Type":"Country","postalCode":"21231-3304","geocodeQualityCode":"P1BAA","geocodeQuality":"POINT","dragPoint":false,"sideOfStreet":"L","linkId":"r23241083|p185913210|n30939677","unknownInput":"","type":"s","latLng":{"lat":39.283297,"lng":-76.595183},"displayLatLng":{"lat":39.283307,"lng":-76.594953}}]},{"providedLocation":{"location":"1601 UNION AVE, Baltimore MD"},"locations":[{"street":"1601 Union Ave","adminArea6":"","adminArea6Type":"Neighborhood","adminArea5":"Baltimore","adminArea5Type":"City","adminArea4":"Baltimore City","adminArea4Type":"County","adminArea3":"MD","adminArea3Type":"State","adminArea1":"US","adminArea1Type":"Country","postalCode":"21211-1918","geocodeQualityCode":"P1AAA","geocodeQuality":"POINT","dragPoint":false,"sideOfStreet":"L","linkId":"r20834526|p188128406|n27745461","unknownInput":"","type":"s","latLng":{"lat":39.332072,"lng":-76.640793},"displayLatLng":{"lat":39.331927,"lng":-76.640771}}]},{"providedLocation":{"location":"600 PRATT ST, Baltimore MD"},"locations":[{"street":"600 E Pratt St","adminArea6":"","adminArea6Type":"Neighborhood","adminArea5":"Baltimore","adminArea5Type":"City","adminArea4":"Baltimore City","adminArea4Type":"County","adminArea3":"MD","adminArea3Type":"State","adminArea1":"US","adminArea1Type":"Country","postalCode":"21202-3130","geocodeQualityCode":"P1BAA","geocodeQuality":"POINT","dragPoint":false,"sideOfStreet":"L","linkId":"r21128948|p189041186|n28130119","unknownInput":"","type":"s","latLng":{"lat":39.286758,"lng":-76.607382},"displayLatLng":{"lat":39.28713,"lng":-76.607407}}]},{"providedLocation":{"location":"17 BALTIMORE ST, Baltimore MD"},"locations":[{"street":"[3601 - 3715] Baltimore St","adminArea6":"","adminArea6Type":"Neighborhood","adminArea5":"Halethorpe","adminArea5Type":"City","adminArea4":"Baltimore County","adminArea4Type":"County","adminArea3":"MD","adminArea3Type":"State","adminArea1":"US","adminArea1Type":"Country","postalCode":"21227","geocodeQualityCode":"B3AAA","geocodeQuality":"STREET","dragPoint":false,"sideOfStreet":"L","linkId":"rnr795729|i27320740","unknownInput":"","type":"s","latLng":{"lat":39.24223,"lng":-76.63103},"displayLatLng":{"lat":39.242273,"lng":-76.630835}}]},{"providedLocation":{"location":"1439 CHARLES ST, Baltimore MD"},"locations":[{"street":"[211 - 299] Charles St","adminArea6":"","adminArea6Type":"Neighborhood","adminArea5":"Brooklyn","adminArea5Type":"City","adminArea4":"Baltimore City","adminArea4Type":"County","adminArea3":"MD","adminArea3Type":"State","adminArea1":"US","adminArea1Type":"Country","postalCode":"21225-2846","geocodeQualityCode":"B3AAA","geocodeQuality":"STREET","dragPoint":false,"sideOfStreet":"R","linkId":"rnr2361827|i31134039","unknownInput":"","type":"s","latLng":{"lat":39.23069,"lng":-76.610955},"displayLatLng":{"lat":39.230501,"lng":-76.611019}}]},{"providedLocation":{"location":"839 CROSS ST, Baltimore MD"},"locations":[{"street":"[711 - 799] Cross St","adminArea6":"","adminArea6Type":"Neighborhood","adminArea5":"Brooklyn","adminArea5Type":"City","adminArea4":"Baltimore City","adminArea4Type":"County","adminArea3":"MD","adminArea3Type":"State","adminArea1":"US","adminArea1Type":"Country","postalCode":"21225-3161","geocodeQualityCode":"B3AAA","geocodeQuality":"STREET","dragPoint":false,"sideOfStreet":"R","linkId":"rnr3131605|i27243305","unknownInput":"","type":"s","latLng":{"lat":39.223656,"lng":-76.600809},"displayLatLng":{"lat":39.223467,"lng":-76.600744}}]},{"providedLocation":{"location":"4701 3 LIBERTY HEIGHTS AVE, Baltimore MD"},"locations":[{"street":"4701 Liberty Heights Ave, 3","adminArea6":"","adminArea6Type":"Neighborhood","adminArea5":"Gwynn Oak","adminArea5Type":"City","adminArea4":"Baltimore","adminArea4Type":"County","adminArea3":"MD","adminArea3Type":"State","adminArea1":"US","adminArea1Type":"Country","postalCode":"21207-7155","geocodeQualityCode":"P1AAA","geocodeQuality":"POINT","dragPoint":false,"sideOfStreet":"L","linkId":"r23272982|p187319804|n30992338","unknownInput":"","type":"s","latLng":{"lat":39.331451,"lng":-76.695949},"displayLatLng":{"lat":39.33134,"lng":-76.695985}}]},{"providedLocation":{"location":"16 CUSTOM HOUSE AVE, Baltimore MD"},"locations":[{"street":"16 Custom House Ave","adminArea6":"","adminArea6Type":"Neighborhood","adminArea5":"Baltimore","adminArea5Type":"City","adminArea4":"Baltimore City","adminArea4Type":"County","adminArea3":"MD","adminArea3Type":"State","adminArea1":"US","adminArea1Type":"Country","postalCode":"21202-3259","geocodeQualityCode":"L1AAA","geocodeQuality":"ADDRESS","dragPoint":false,"sideOfStreet":"R","linkId":"rnr3161725|i27322606","unknownInput":"","type":"s","latLng":{"lat":39.288877,"lng":-76.609725},"displayLatLng":{"lat":39.28886,"lng":-76.609924}}]},{"providedLocation":{"location":"5200 FRANKLINTOWN RD, Baltimore MD"},"locations":[{"street":"5200 Franklintown Rd","adminArea6":"","adminArea6Type":"Neighborhood","adminArea5":"Gwynn Oak","adminArea5Type":"City","adminArea4":"Baltimore City","adminArea4Type":"County","adminArea3":"MD","adminArea3Type":"State","adminArea1":"US","adminArea1Type":"Country","postalCode":"21207-6511","geocodeQualityCode":"P1AAA","geocodeQuality":"POINT","dragPoint":false,"sideOfStreet":"R","linkId":"r21111898|p197121923|n28088406","unknownInput":"","type":"s","latLng":{"lat":39.30339,"lng":-76.711211},"displayLatLng":{"lat":39.303993,"lng":-76.71112}}]},{"providedLocation":{"location":"6620 BELAIR RD, Baltimore MD"},"locations":[{"street":"6620 Belair Rd","adminArea6":"","adminArea6Type":"Neighborhood","adminArea5":"Baltimore","adminArea5Type":"City","adminArea4":"Baltimore City","adminArea4Type":"County","adminArea3":"MD","adminArea3Type":"State","adminArea1":"US","adminArea1Type":"Country","postalCode":"21206-1814","geocodeQualityCode":"P1AAA","geocodeQuality":"POINT","dragPoint":false,"sideOfStreet":"L","linkId":"r22897464|p187379732|n30488679","unknownInput":"","type":"s","latLng":{"lat":39.35421,"lng":-76.531286},"displayLatLng":{"lat":39.354493,"lng":-76.531694}}]},{"providedLocation":{"location":"3920 buena vista ave, Baltimore MD"},"locations":[{"street":"3920 Buena Vista Ave","adminArea6":"","adminArea6Type":"Neighborhood","adminArea5":"Baltimore","adminArea5Type":"City","adminArea4":"Baltimore City","adminArea4Type":"County","adminArea3":"MD","adminArea3Type":"State","adminArea1":"US","adminArea1Type":"Country","postalCode":"21211-1704","geocodeQualityCode":"P1AAA","geocodeQuality":"POINT","dragPoint":false,"sideOfStreet":"L","linkId":"r21115633|p185985580|n28120866","unknownInput":"","type":"s","latLng":{"lat":39.335034,"lng":-76.640652},"displayLatLng":{"lat":39.334996,"lng":-76.640852}}]},{"providedLocation":{"location":"919 36TH ST, Baltimore MD"},"locations":[{"street":"919 W 36th St","adminArea6":"","adminArea6Type":"Neighborhood","adminArea5":"Baltimore","adminArea5Type":"City","adminArea4":"Baltimore City","adminArea4Type":"County","adminArea3":"MD","adminArea3Type":"State","adminArea1":"US","adminArea1Type":"Country","postalCode":"21211-2414","geocodeQualityCode":"P1BAA","geocodeQuality":"POINT","dragPoint":false,"sideOfStreet":"L","linkId":"r20873578|p187901687|n27790081","unknownInput":"","type":"s","latLng":{"lat":39.331123,"lng":-76.631988},"displayLatLng":{"lat":39.330998,"lng":-76.631976}}]},{"providedLocation":{"location":"3605 FAIRHAVEN AVE, Baltimore MD"},"locations":[{"street":"3605 Fairhaven Ave","adminArea6":"","adminArea6Type":"Neighborhood","adminArea5":"Curtis Bay","adminArea5Type":"City","adminArea4":"Anne Arundel","adminArea4Type":"County","adminArea3":"MD","adminArea3Type":"State","adminArea1":"US","adminArea1Type":"Country","postalCode":"21226-1113","geocodeQualityCode":"P1AAA","geocodeQuality":"POINT","dragPoint":false,"sideOfStreet":"L","linkId":"r20952670|p193630914|n27878911","unknownInput":"","type":"s","latLng":{"lat":39.232084,"lng":-76.590627},"displayLatLng":{"lat":39.23211,"lng":-76.590342}}]},{"providedLocation":{"location":"4019 FREDERICK AVE, Baltimore MD"},"locations":[{"street":"4019 Frederick Ave","adminArea6":"","adminArea6Type":"Neighborhood","adminArea5":"Baltimore","adminArea5Type":"City","adminArea4":"Baltimore City","adminArea4Type":"County","adminArea3":"MD","adminArea3Type":"State","adminArea1":"US","adminArea1Type":"Country","postalCode":"21229-4109","geocodeQualityCode":"P1AAA","geocodeQuality":"POINT","dragPoint":false,"sideOfStreet":"L","linkId":"r20929335|p189057915|n27853472","unknownInput":"","type":"s","latLng":{"lat":39.281734,"lng":-76.682632},"displayLatLng":{"lat":39.281617,"lng":-76.682629}}]},{"providedLocation":{"location":"3221 GREENMOUNT AVE, Baltimore MD"},"locations":[{"street":"3221 Greenmount Ave","adminArea6":"","adminArea6Type":"Neighborhood","adminArea5":"Baltimore","adminArea5Type":"City","adminArea4":"Baltimore City","adminArea4Type":"County","adminArea3":"MD","adminArea3Type":"State","adminArea1":"US","adminArea1Type":"Country","postalCode":"21218-3439","geocodeQualityCode":"P1AAA","geocodeQuality":"POINT","dragPoint":false,"sideOfStreet":"R","linkId":"r21129931|p185927580|n28126029","unknownInput":"","type":"s","latLng":{"lat":39.327874,"lng":-76.609422},"displayLatLng":{"lat":39.327876,"lng":-76.609145}}]},{"providedLocation":{"location":"1634 ALICEANNA ST, Baltimore MD"},"locations":[{"street":"1634 Aliceanna St","adminArea6":"","adminArea6Type":"Neighborhood","adminArea5":"Baltimore","adminArea5Type":"City","adminArea4":"Baltimore City","adminArea4Type":"County","adminArea3":"MD","adminArea3Type":"State","adminArea1":"US","adminArea1Type":"Country","postalCode":"21231-2926","geocodeQualityCode":"P1AAA","geocodeQuality":"POINT","dragPoint":false,"sideOfStreet":"L","linkId":"r22926188|p187224071|n30531157","unknownInput":"","type":"s","latLng":{"lat":39.283513,"lng":-76.593831},"displayLatLng":{"lat":39.283693,"lng":-76.59383}}]},{"providedLocation":{"location":"1710 ALICEANNA ST, Baltimore MD"},"locations":[{"street":"1710 Aliceanna St","adminArea6":"","adminArea6Type":"Neighborhood","adminArea5":"Baltimore","adminArea5Type":"City","adminArea4":"Baltimore City","adminArea4Type":"County","adminArea3":"MD","adminArea3Type":"State","adminArea1":"US","adminArea1Type":"Country","postalCode":"21231-2901","geocodeQualityCode":"P1AAA","geocodeQuality":"POINT","dragPoint":false,"sideOfStreet":"L","linkId":"r20997909|p195313865|n27931274","unknownInput":"","type":"s","latLng":{"lat":39.283567,"lng":-76.592637},"displayLatLng":{"lat":39.283743,"lng":-76.59265}}]},{"providedLocation":{"location":"2733 PENNSLYVANIA AVE, Baltimore MD"},"locations":[{"street":"2733 Pennsylvania Ave","adminArea6":"","adminArea6Type":"Neighborhood","adminArea5":"Baltimore","adminArea5Type":"City","adminArea4":"Baltimore City","adminArea4Type":"County","adminArea3":"MD","adminArea3Type":"State","adminArea1":"US","adminArea1Type":"Country","postalCode":"21217-1820","geocodeQualityCode":"P1BAA","geocodeQuality":"POINT","dragPoint":false,"sideOfStreet":"R","linkId":"r20919475|p187297307|n27847294","unknownInput":"","type":"s","latLng":{"lat":39.313159,"lng":-76.646209},"displayLatLng":{"lat":39.313259,"lng":-76.645987}}]},{"providedLocation":{"location":"2201 FULTON Ave, Baltimore MD"},"locations":[{"street":"2201 N Fulton Ave","adminArea6":"","adminArea6Type":"Neighborhood","adminArea5":"Baltimore","adminArea5Type":"City","adminArea4":"Baltimore City","adminArea4Type":"County","adminArea3":"MD","adminArea3Type":"State","adminArea1":"US","adminArea1Type":"Country","postalCode":"21217-1912","geocodeQualityCode":"P1BAA","geocodeQuality":"POINT","dragPoint":false,"sideOfStreet":"R","linkId":"r23820977|p188398239|n31764061","unknownInput":"","type":"s","latLng":{"lat":39.313586,"lng":-76.645866},"displayLatLng":{"lat":39.313522,"lng":-76.645799}}]},{"providedLocation":{"location":"3802 EASTERN AVE, Baltimore MD"},"locations":[{"street":"3802 Eastern Ave","adminArea6":"","adminArea6Type":"Neighborhood","adminArea5":"Baltimore","adminArea5Type":"City","adminArea4":"Baltimore City","adminArea4Type":"County","adminArea3":"MD","adminArea3Type":"State","adminArea1":"US","adminArea1Type":"Country","postalCode":"21224-4221","geocodeQualityCode":"P1AAA","geocodeQuality":"POINT","dragPoint":false,"sideOfStreet":"L","linkId":"r23169301|p273584572|n30856592","unknownInput":"","type":"s","latLng":{"lat":39.286664,"lng":-76.565141},"displayLatLng":{"lat":39.286868,"lng":-76.565149}}]},{"providedLocation":{"location":"415 HIGHLAND AVE, Baltimore MD"},"locations":[{"street":"415 Highland Ave","adminArea6":"","adminArea6Type":"Neighborhood","adminArea5":"Brooklyn","adminArea5Type":"City","adminArea4":"Baltimore City","adminArea4Type":"County","adminArea3":"MD","adminArea3Type":"State","adminArea1":"US","adminArea1Type":"Country","postalCode":"21225-2854","geocodeQualityCode":"L1AAA","geocodeQuality":"ADDRESS","dragPoint":false,"sideOfStreet":"R","linkId":"rnr4642166|i27572029","unknownInput":"","type":"s","latLng":{"lat":39.231107,"lng":-76.608471},"displayLatLng":{"lat":39.230927,"lng":-76.608556}}]},{"providedLocation":{"location":"938 CONKLING ST, Baltimore MD"},"locations":[{"street":"938 S Conkling St","adminArea6":"","adminArea6Type":"Neighborhood","adminArea5":"Baltimore","adminArea5Type":"City","adminArea4":"Baltimore City","adminArea4Type":"County","adminArea3":"MD","adminArea3Type":"State","adminArea1":"US","adminArea1Type":"Country","postalCode":"21224-5216","geocodeQualityCode":"P1BAA","geocodeQuality":"POINT","dragPoint":false,"sideOfStreet":"R","linkId":"r20996756|p185447531|n27947599","unknownInput":"","type":"s","latLng":{"lat":39.281812,"lng":-76.566844},"displayLatLng":{"lat":39.281804,"lng":-76.567069}}]},{"providedLocation":{"location":"1735 MARYLAND AVE, Baltimore MD"},"locations":[{"street":"1735 Maryland Ave","adminArea6":"","adminArea6Type":"Neighborhood","adminArea5":"Baltimore","adminArea5Type":"City","adminArea4":"Baltimore City","adminArea4Type":"County","adminArea3":"MD","adminArea3Type":"State","adminArea1":"US","adminArea1Type":"Country","postalCode":"21201-5803","geocodeQualityCode":"L1AAA","geocodeQuality":"ADDRESS","dragPoint":false,"sideOfStreet":"R","linkId":"rnr5742361|i27262760","unknownInput":"","type":"s","latLng":{"lat":39.309282,"lng":-76.617802},"displayLatLng":{"lat":39.309295,"lng":-76.617602}}]},{"providedLocation":{"location":"13 CENTRE ST, Baltimore MD"},"locations":[{"street":"[101 - 199] Center St","adminArea6":"","adminArea6Type":"Neighborhood","adminArea5":"Dundalk","adminArea5Type":"City","adminArea4":"Baltimore","adminArea4Type":"County","adminArea3":"MD","adminArea3Type":"State","adminArea1":"US","adminArea1Type":"Country","postalCode":"21222-6110","geocodeQualityCode":"B3AAA","geocodeQuality":"STREET","dragPoint":false,"sideOfStreet":"L","linkId":"rnr2283955|i30943686","unknownInput":"","type":"s","latLng":{"lat":39.241176,"lng":-76.510618},"displayLatLng":{"lat":39.241376,"lng":-76.510618}}]},{"providedLocation":{"location":"4809 ERDMAN AVE, Baltimore MD"},"locations":[{"street":"4809 Erdman Ave","adminArea6":"","adminArea6Type":"Neighborhood","adminArea5":"Baltimore","adminArea5Type":"City","adminArea4":"Baltimore City","adminArea4Type":"County","adminArea3":"MD","adminArea3Type":"State","adminArea1":"US","adminArea1Type":"Country","postalCode":"21205-3103","geocodeQualityCode":"P1AAA","geocodeQuality":"POINT","dragPoint":false,"sideOfStreet":"R","linkId":"r21330588|p186522581|n28406244","unknownInput":"","type":"s","latLng":{"lat":39.306941,"lng":-76.559486},"displayLatLng":{"lat":39.306823,"lng":-76.559617}}]},{"providedLocation":{"location":"1501 LIGHT ST, Baltimore MD"},"locations":[{"street":"1501 Light St","adminArea6":"","adminArea6Type":"Neighborhood","adminArea5":"Baltimore","adminArea5Type":"City","adminArea4":"Baltimore City","adminArea4Type":"County","adminArea3":"MD","adminArea3Type":"State","adminArea1":"US","adminArea1Type":"Country","postalCode":"21230-4516","geocodeQualityCode":"P1AAA","geocodeQuality":"POINT","dragPoint":false,"sideOfStreet":"L","linkId":"r20917513|p188434861|n27854632","unknownInput":"","type":"s","latLng":{"lat":39.272581,"lng":-76.611716},"displayLatLng":{"lat":39.272609,"lng":-76.611507}}]},{"providedLocation":{"location":"2318 FLEET ST, Baltimore MD"},"locations":[{"street":"2318 Fleet St","adminArea6":"","adminArea6Type":"Neighborhood","adminArea5":"Baltimore","adminArea5Type":"City","adminArea4":"Baltimore City","adminArea4Type":"County","adminArea3":"MD","adminArea3Type":"State","adminArea1":"US","adminArea1Type":"Country","postalCode":"21224-3621","geocodeQualityCode":"P1AAA","geocodeQuality":"POINT","dragPoint":false,"sideOfStreet":"L","linkId":"r23818887|p189245805|n31753626","unknownInput":"","type":"s","latLng":{"lat":39.284962,"lng":-76.583618},"displayLatLng":{"lat":39.28514,"lng":-76.583625}}]},{"providedLocation":{"location":"1001 FLEET ST, Baltimore MD"},"locations":[{"street":"1001 Fleet St","adminArea6":"","adminArea6Type":"Neighborhood","adminArea5":"Baltimore","adminArea5Type":"City","adminArea4":"Baltimore City","adminArea4Type":"County","adminArea3":"MD","adminArea3Type":"State","adminArea1":"US","adminArea1Type":"Country","postalCode":"21202-4337","geocodeQualityCode":"P1AAA","geocodeQuality":"POINT","dragPoint":false,"sideOfStreet":"R","linkId":"r20791891|p186100994|n27688592","unknownInput":"","type":"s","latLng":{"lat":39.284276,"lng":-76.599747},"displayLatLng":{"lat":39.284097,"lng":-76.599739}}]},{"providedLocation":{"location":"1746 FLEET ST, Baltimore MD"},"locations":[{"street":"1746 Fleet St","adminArea6":"","adminArea6Type":"Neighborhood","adminArea5":"Baltimore","adminArea5Type":"City","adminArea4":"Baltimore City","adminArea4Type":"County","adminArea3":"MD","adminArea3Type":"State","adminArea1":"US","adminArea1Type":"Country","postalCode":"21231-2919","geocodeQualityCode":"P1AAA","geocodeQuality":"POINT","dragPoint":false,"sideOfStreet":"L","linkId":"r20849769|p186369565|n27762611","unknownInput":"","type":"s","latLng":{"lat":39.284624,"lng":-76.59168},"displayLatLng":{"lat":39.284812,"lng":-76.591688}}]},{"providedLocation":{"location":"838 CHESTER ST, Baltimore MD"},"locations":[{"street":"838 N Chester St","adminArea6":"","adminArea6Type":"Neighborhood","adminArea5":"Baltimore","adminArea5Type":"City","adminArea4":"Baltimore City","adminArea4Type":"County","adminArea3":"MD","adminArea3Type":"State","adminArea1":"US","adminArea1Type":"Country","postalCode":"21205-1526","geocodeQualityCode":"P1BAA","geocodeQuality":"POINT","dragPoint":false,"sideOfStreet":"L","linkId":"r20862972|p188755537|n27764375","unknownInput":"","type":"s","latLng":{"lat":39.300594,"lng":-76.587949},"displayLatLng":{"lat":39.30058,"lng":-76.588202}}]},{"providedLocation":{"location":"2700 BROENING HWY, Baltimore MD"},"locations":[{"street":"2700 Broening Hwy","adminArea6":"","adminArea6Type":"Neighborhood","adminArea5":"Dundalk","adminArea5Type":"City","adminArea4":"Baltimore","adminArea4Type":"County","adminArea3":"MD","adminArea3Type":"State","adminArea1":"US","adminArea1Type":"Country","postalCode":"21222-4107","geocodeQualityCode":"L1AAA","geocodeQuality":"ADDRESS","dragPoint":false,"sideOfStreet":"R","linkId":"rnr1197099|i27250069","unknownInput":"","type":"s","latLng":{"lat":39.256508,"lng":-76.531738},"displayLatLng":{"lat":39.256329,"lng":-76.531828}}]},{"providedLocation":{"location":"6322 REISTERSTOWN RD, Baltimore MD"},"locations":[{"street":"6322 Reisterstown Rd","adminArea6":"","adminArea6Type":"Neighborhood","adminArea5":"Baltimore","adminArea5Type":"City","adminArea4":"Baltimore City","adminArea4Type":"County","adminArea3":"MD","adminArea3Type":"State","adminArea1":"US","adminArea1Type":"Country","postalCode":"21215-2309","geocodeQualityCode":"P1AAA","geocodeQuality":"POINT","dragPoint":false,"sideOfStreet":"L","linkId":"r23852926|p187476177|n31803898","unknownInput":"","type":"s","latLng":{"lat":39.355306,"lng":-76.701173},"displayLatLng":{"lat":39.355223,"lng":-76.701272}}]},{"providedLocation":{"location":"300 HIGH ST, Baltimore MD"},"locations":[{"street":"300 N High St","adminArea6":"","adminArea6Type":"Neighborhood","adminArea5":"Baltimore","adminArea5Type":"City","adminArea4":"Baltimore City","adminArea4Type":"County","adminArea3":"MD","adminArea3Type":"State","adminArea1":"US","adminArea1Type":"Country","postalCode":"21202","geocodeQualityCode":"P1BAA","geocodeQuality":"POINT","dragPoint":false,"sideOfStreet":"L","linkId":"r22610754|p186152774|n30131240","unknownInput":"","type":"s","latLng":{"lat":39.293404,"lng":-76.606415},"displayLatLng":{"lat":39.29328,"lng":-76.606581}}]},{"providedLocation":{"location":"32 CHESTER ST, Baltimore MD"},"locations":[{"street":"32 N Chester St","adminArea6":"","adminArea6Type":"Neighborhood","adminArea5":"Baltimore","adminArea5Type":"City","adminArea4":"Baltimore City","adminArea4Type":"County","adminArea3":"MD","adminArea3Type":"State","adminArea1":"US","adminArea1Type":"Country","postalCode":"21231-1624","geocodeQualityCode":"P1BAA","geocodeQuality":"POINT","dragPoint":false,"sideOfStreet":"L","linkId":"r20949722|p187254361|n27896704","unknownInput":"","type":"s","latLng":{"lat":39.292769,"lng":-76.587483},"displayLatLng":{"lat":39.292763,"lng":-76.587706}}]},{"providedLocation":{"location":"347 GILMOR ST, Baltimore MD"},"locations":[{"street":"347 S Gilmor St","adminArea6":"","adminArea6Type":"Neighborhood","adminArea5":"Baltimore","adminArea5Type":"City","adminArea4":"Baltimore City","adminArea4Type":"County","adminArea3":"MD","adminArea3Type":"State","adminArea1":"US","adminArea1Type":"Country","postalCode":"21223-3103","geocodeQualityCode":"P1BAA","geocodeQuality":"POINT","dragPoint":false,"sideOfStreet":"L","linkId":"r21389722|p186032391|n28519457","unknownInput":"","type":"s","latLng":{"lat":39.283395,"lng":-76.642086},"displayLatLng":{"lat":39.283407,"lng":-76.641859}}]},{"providedLocation":{"location":"421 CONKLING ST, Baltimore MD"},"locations":[{"street":"421 S Conkling St","adminArea6":"","adminArea6Type":"Neighborhood","adminArea5":"Baltimore","adminArea5Type":"City","adminArea4":"Baltimore City","adminArea4Type":"County","adminArea3":"MD","adminArea3Type":"State","adminArea1":"US","adminArea1Type":"Country","postalCode":"21224-2404","geocodeQualityCode":"P1BAA","geocodeQuality":"POINT","dragPoint":false,"sideOfStreet":"L","linkId":"r23201714|p186480064|n30897812","unknownInput":"","type":"s","latLng":{"lat":39.287094,"lng":-76.567184},"displayLatLng":{"lat":39.287107,"lng":-76.566953}}]},{"providedLocation":{"location":"1315 MULBERRY ST, Baltimore MD"},"locations":[{"street":"1315 W Mulberry St","adminArea6":"","adminArea6Type":"Neighborhood","adminArea5":"Baltimore","adminArea5Type":"City","adminArea4":"Baltimore City","adminArea4Type":"County","adminArea3":"MD","adminArea3Type":"State","adminArea1":"US","adminArea1Type":"Country","postalCode":"21223-1357","geocodeQualityCode":"P1BAA","geocodeQuality":"POINT","dragPoint":false,"sideOfStreet":"L","linkId":"r21188298|p188705562|n28213032","unknownInput":"","type":"s","latLng":{"lat":39.29318,"lng":-76.639136},"displayLatLng":{"lat":39.293006,"lng":-76.639134}}]},{"providedLocation":{"location":"1263 FAYETTE ST, Baltimore MD"},"locations":[{"street":"1263 E Fayette St","adminArea6":"","adminArea6Type":"Neighborhood","adminArea5":"Baltimore","adminArea5Type":"City","adminArea4":"Baltimore City","adminArea4Type":"County","adminArea3":"MD","adminArea3Type":"State","adminArea1":"US","adminArea1Type":"Country","postalCode":"21202-4720","geocodeQualityCode":"P1BAA","geocodeQuality":"POINT","dragPoint":false,"sideOfStreet":"R","linkId":"r20978235|p195552258|n27913541","unknownInput":"","type":"s","latLng":{"lat":39.2924,"lng":-76.599969},"displayLatLng":{"lat":39.29228,"lng":-76.599934}}]},{"providedLocation":{"location":"5512 HARFORD RD, Baltimore MD"},"locations":[{"street":"5512 Harford Rd","adminArea6":"","adminArea6Type":"Neighborhood","adminArea5":"Baltimore","adminArea5Type":"City","adminArea4":"Baltimore City","adminArea4Type":"County","adminArea3":"MD","adminArea3Type":"State","adminArea1":"US","adminArea1Type":"Country","postalCode":"21214-2231","geocodeQualityCode":"P1AAA","geocodeQuality":"POINT","dragPoint":false,"sideOfStreet":"L","linkId":"r23262990|p186219436|n30974044","unknownInput":"","type":"s","latLng":{"lat":39.352722,"lng":-76.561096},"displayLatLng":{"lat":39.352791,"lng":-76.56123}}]},{"providedLocation":{"location":"411 BALTIMORE ST, Baltimore MD"},"locations":[{"street":"[3601 - 3715] Baltimore St","adminArea6":"","adminArea6Type":"Neighborhood","adminArea5":"Halethorpe","adminArea5Type":"City","adminArea4":"Baltimore County","adminArea4Type":"County","adminArea3":"MD","adminArea3Type":"State","adminArea1":"US","adminArea1Type":"Country","postalCode":"21227","geocodeQualityCode":"B3AAA","geocodeQuality":"STREET","dragPoint":false,"sideOfStreet":"L","linkId":"rnr795729|i27320740","unknownInput":"","type":"s","latLng":{"lat":39.24223,"lng":-76.63103},"displayLatLng":{"lat":39.242273,"lng":-76.630835}}]},{"providedLocation":{"location":"411 1 2 E BALTIMORE ST, Baltimore MD"},"locations":[{"street":"411 East 21st 1/2 Street","adminArea6":"","adminArea6Type":"Neighborhood","adminArea5":"Baltimore","adminArea5Type":"City","adminArea4":"","adminArea4Type":"County","adminArea3":"MD","adminArea3Type":"State","adminArea1":"US","adminArea1Type":"Country","postalCode":"21218","geocodeQualityCode":"P1CAA","geocodeQuality":"POINT","dragPoint":false,"sideOfStreet":"N","linkId":"US/PAD/p1/50418109","unknownInput":"","type":"s","latLng":{"lat":39.3138,"lng":-76.61047},"displayLatLng":{"lat":39.3138,"lng":-76.61047}}]},{"providedLocation":{"location":"1105 36TH ST, Baltimore MD"},"locations":[{"street":"1105 E 36th St","adminArea6":"","adminArea6Type":"Neighborhood","adminArea5":"Baltimore","adminArea5Type":"City","adminArea4":"Baltimore City","adminArea4Type":"County","adminArea3":"MD","adminArea3Type":"State","adminArea1":"US","adminArea1Type":"Country","postalCode":"21218","geocodeQualityCode":"L1BAA","geocodeQuality":"ADDRESS","dragPoint":false,"sideOfStreet":"R","linkId":"rnr3470970|i30898878","unknownInput":"","type":"s","latLng":{"lat":39.331676,"lng":-76.60086},"displayLatLng":{"lat":39.331476,"lng":-76.60086}}]},{"providedLocation":{"location":"1600 BALTIMORE ST, Baltimore MD"},"locations":[{"street":"[3600 - 3714] Baltimore St","adminArea6":"","adminArea6Type":"Neighborhood","adminArea5":"Halethorpe","adminArea5Type":"City","adminArea4":"Baltimore","adminArea4Type":"County","adminArea3":"MD","adminArea3Type":"State","adminArea1":"US","adminArea1Type":"Country","postalCode":"21227-2214","geocodeQualityCode":"B3AAA","geocodeQuality":"STREET","dragPoint":false,"sideOfStreet":"R","linkId":"rnr795576|i27319618","unknownInput":"","type":"s","latLng":{"lat":39.24223,"lng":-76.63103},"displayLatLng":{"lat":39.242188,"lng":-76.631226}}]},{"providedLocation":{"location":"1818 MARYLAND AVE, Baltimore MD"},"locations":[{"street":"1818 Maryland Ave","adminArea6":"","adminArea6Type":"Neighborhood","adminArea5":"Baltimore","adminArea5Type":"City","adminArea4":"Baltimore City","adminArea4Type":"County","adminArea3":"MD","adminArea3Type":"State","adminArea1":"US","adminArea1Type":"Country","postalCode":"21201-5806","geocodeQualityCode":"P1AAA","geocodeQuality":"POINT","dragPoint":false,"sideOfStreet":"L","linkId":"r23905820|p188046169|n31868985","unknownInput":"","type":"s","latLng":{"lat":39.310259,"lng":-76.617859},"displayLatLng":{"lat":39.310247,"lng":-76.618084}}]},{"providedLocation":{"location":"21 CALVERT ST, Baltimore MD"},"locations":[{"street":"[501 - 517] Calvert St","adminArea6":"","adminArea6Type":"Neighborhood","adminArea5":"Brooklyn","adminArea5Type":"City","adminArea4":"Baltimore City","adminArea4Type":"County","adminArea3":"MD","adminArea3Type":"State","adminArea1":"US","adminArea1Type":"Country","postalCode":"21225","geocodeQualityCode":"B3AAA","geocodeQuality":"STREET","dragPoint":false,"sideOfStreet":"R","linkId":"rnr2055487|i28175365","unknownInput":"","type":"s","latLng":{"lat":39.232939,"lng":-76.604916},"displayLatLng":{"lat":39.232748,"lng":-76.604976}}]},{"providedLocation":{"location":"527 BELVEDERE AVE, Baltimore MD"},"locations":[{"street":"527 E Belvedere Ave","adminArea6":"","adminArea6Type":"Neighborhood","adminArea5":"Baltimore","adminArea5Type":"City","adminArea4":"Baltimore City","adminArea4Type":"County","adminArea3":"MD","adminArea3Type":"State","adminArea1":"US","adminArea1Type":"Country","postalCode":"21212-3745","geocodeQualityCode":"L1BAA","geocodeQuality":"ADDRESS","dragPoint":false,"sideOfStreet":"R","linkId":"rnr3545449|i27733739","unknownInput":"","type":"s","latLng":{"lat":39.364169,"lng":-76.608549},"displayLatLng":{"lat":39.363969,"lng":-76.608541}}]},{"providedLocation":{"location":"3838 ROLAND AVE, Baltimore MD"},"locations":[{"street":"3838 Roland Ave","adminArea6":"","adminArea6Type":"Neighborhood","adminArea5":"Baltimore","adminArea5Type":"City","adminArea4":"Baltimore City","adminArea4Type":"County","adminArea3":"MD","adminArea3Type":"State","adminArea1":"US","adminArea1Type":"Country","postalCode":"21211-2005","geocodeQualityCode":"P1AAA","geocodeQuality":"POINT","dragPoint":false,"sideOfStreet":"L","linkId":"r23597677|p186789699|n31458094","unknownInput":"","type":"s","latLng":{"lat":39.335261,"lng":-76.632928},"displayLatLng":{"lat":39.335254,"lng":-76.633135}}]},{"providedLocation":{"location":"2903 O DONNELL ST, Baltimore MD"},"locations":[{"street":"2903 Odonnell St","adminArea6":"","adminArea6Type":"Neighborhood","adminArea5":"Baltimore","adminArea5Type":"City","adminArea4":"Baltimore City","adminArea4Type":"County","adminArea3":"MD","adminArea3Type":"State","adminArea1":"US","adminArea1Type":"Country","postalCode":"21224-4821","geocodeQualityCode":"P1AAA","geocodeQuality":"POINT","dragPoint":false,"sideOfStreet":"R","linkId":"r23085620|p272302410|n30738845","unknownInput":"","type":"s","latLng":{"lat":39.280054,"lng":-76.575135},"displayLatLng":{"lat":39.279875,"lng":-76.575126}}]},{"providedLocation":{"location":"2 WHEELER AVE, Baltimore MD"},"locations":[{"street":"2 Wheeler Ave","adminArea6":"","adminArea6Type":"Neighborhood","adminArea5":"Baltimore","adminArea5Type":"City","adminArea4":"Baltimore City","adminArea4Type":"County","adminArea3":"MD","adminArea3Type":"State","adminArea1":"US","adminArea1Type":"Country","postalCode":"21223-1443","geocodeQualityCode":"P1AAA","geocodeQuality":"POINT","dragPoint":false,"sideOfStreet":"L","linkId":"r23843036|p186027001|n31801553","unknownInput":"","type":"s","latLng":{"lat":39.288273,"lng":-76.654365},"displayLatLng":{"lat":39.288265,"lng":-76.654564}}]},{"providedLocation":{"location":"3444 WILKENS AVE, Baltimore MD"},"locations":[{"street":"3444 Wilkens Ave","adminArea6":"","adminArea6Type":"Neighborhood","adminArea5":"Baltimore","adminArea5Type":"City","adminArea4":"Baltimore City","adminArea4Type":"County","adminArea3":"MD","adminArea3Type":"State","adminArea1":"US","adminArea1Type":"Country","postalCode":"21229-4614","geocodeQualityCode":"P1AAA","geocodeQuality":"POINT","dragPoint":false,"sideOfStreet":"L","linkId":"r21000091|p189204575|n27949230","unknownInput":"","type":"s","latLng":{"lat":39.272454,"lng":-76.675691},"displayLatLng":{"lat":39.27285,"lng":-76.675816}}]},{"providedLocation":{"location":"300 GREENE ST, Baltimore MD"},"locations":[{"street":"300 North Greene Street","adminArea6":"","adminArea6Type":"Neighborhood","adminArea5":"Baltimore","adminArea5Type":"City","adminArea4":"","adminArea4Type":"County","adminArea3":"MD","adminArea3Type":"State","adminArea1":"US","adminArea1Type":"Country","postalCode":"21201","geocodeQualityCode":"P1CAA","geocodeQuality":"POINT","dragPoint":false,"sideOfStreet":"N","linkId":"US/PAD/p1/50434121","unknownInput":"","type":"s","latLng":{"lat":39.29332,"lng":-76.62411},"displayLatLng":{"lat":39.29332,"lng":-76.62411}}]},{"providedLocation":{"location":"725 WOLFE ST, Baltimore MD"},"locations":[{"street":"725 S Wolfe St","adminArea6":"","adminArea6Type":"Neighborhood","adminArea5":"Baltimore","adminArea5Type":"City","adminArea4":"Baltimore City","adminArea4Type":"County","adminArea3":"MD","adminArea3Type":"State","adminArea1":"US","adminArea1Type":"Country","postalCode":"21231-3513","geocodeQualityCode":"L1BAA","geocodeQuality":"ADDRESS","dragPoint":false,"sideOfStreet":"L","linkId":"rnr8778888|i27250717","unknownInput":"","type":"s","latLng":{"lat":39.282786,"lng":-76.589869},"displayLatLng":{"lat":39.28281,"lng":-76.589671}}]},{"providedLocation":{"location":"1318 GREENMOUNT AVE, Baltimore MD"},"locations":[{"street":"1318 Greenmount Ave","adminArea6":"","adminArea6Type":"Neighborhood","adminArea5":"Baltimore","adminArea5Type":"City","adminArea4":"Baltimore City","adminArea4Type":"County","adminArea3":"MD","adminArea3Type":"State","adminArea1":"US","adminArea1Type":"Country","postalCode":"21202-3920","geocodeQualityCode":"P1AAA","geocodeQuality":"POINT","dragPoint":false,"sideOfStreet":"L","linkId":"r20795494|p185516424|n27691376","unknownInput":"","type":"s","latLng":{"lat":39.305347,"lng":-76.608317},"displayLatLng":{"lat":39.30529,"lng":-76.608541}}]},{"providedLocation":{"location":"1226 MC CULLOH ST, Baltimore MD"},"locations":[{"street":"1226 McCulloh St","adminArea6":"","adminArea6Type":"Neighborhood","adminArea5":"Baltimore","adminArea5Type":"City","adminArea4":"Baltimore City","adminArea4Type":"County","adminArea3":"MD","adminArea3Type":"State","adminArea1":"US","adminArea1Type":"Country","postalCode":"21217-3042","geocodeQualityCode":"P1AAA","geocodeQuality":"POINT","dragPoint":false,"sideOfStreet":"L","linkId":"r20939270|p187639505|n27870771","unknownInput":"","type":"s","latLng":{"lat":39.302383,"lng":-76.627622},"displayLatLng":{"lat":39.302278,"lng":-76.627756}}]},{"providedLocation":{"location":"3631 HICKORY ave, Baltimore MD"},"locations":[{"street":"3631 Hickory Ave","adminArea6":"","adminArea6Type":"Neighborhood","adminArea5":"Baltimore","adminArea5Type":"City","adminArea4":"Baltimore City","adminArea4Type":"County","adminArea3":"MD","adminArea3Type":"State","adminArea1":"US","adminArea1Type":"Country","postalCode":"21211-1808","geocodeQualityCode":"L1AAA","geocodeQuality":"ADDRESS","dragPoint":false,"sideOfStreet":"R","linkId":"rnr4603772|i27117937","unknownInput":"","type":"s","latLng":{"lat":39.33155,"lng":-76.633936},"displayLatLng":{"lat":39.331601,"lng":-76.633743}}]},{"providedLocation":{"location":"1011 36TH ST, Baltimore MD"},"locations":[{"street":"1011 W 36th St","adminArea6":"","adminArea6Type":"Neighborhood","adminArea5":"Baltimore","adminArea5Type":"City","adminArea4":"Baltimore City","adminArea4Type":"County","adminArea3":"MD","adminArea3Type":"State","adminArea1":"US","adminArea1Type":"Country","postalCode":"21211-2416","geocodeQualityCode":"P1BAA","geocodeQuality":"POINT","dragPoint":false,"sideOfStreet":"L","linkId":"r22887219|p194375520|n30473941","unknownInput":"","type":"s","latLng":{"lat":39.331077,"lng":-76.633084},"displayLatLng":{"lat":39.330956,"lng":-76.633079}}]},{"providedLocation":{"location":"601 CAROLINE ST, Baltimore MD"},"locations":[{"street":"601 S Caroline St","adminArea6":"","adminArea6Type":"Neighborhood","adminArea5":"Baltimore","adminArea5Type":"City","adminArea4":"Baltimore City","adminArea4Type":"County","adminArea3":"MD","adminArea3Type":"State","adminArea1":"US","adminArea1Type":"Country","postalCode":"21231-2814","geocodeQualityCode":"P1BAA","geocodeQuality":"POINT","dragPoint":false,"sideOfStreet":"L","linkId":"r21106674|p187184863|n28096890","unknownInput":"","type":"s","latLng":{"lat":39.284189,"lng":-76.59668},"displayLatLng":{"lat":39.284198,"lng":-76.596435}}]},{"providedLocation":{"location":"600 POTOMAC ST, Baltimore MD"},"locations":[{"street":"600 N Potomac St","adminArea6":"","adminArea6Type":"Neighborhood","adminArea5":"Baltimore","adminArea5Type":"City","adminArea4":"Baltimore City","adminArea4Type":"County","adminArea3":"MD","adminArea3Type":"State","adminArea1":"US","adminArea1Type":"Country","postalCode":"21205-2733","geocodeQualityCode":"P1BAA","geocodeQuality":"POINT","dragPoint":false,"sideOfStreet":"L","linkId":"r20854474|p186118176|n27757028","unknownInput":"","type":"s","latLng":{"lat":39.298351,"lng":-76.575188},"displayLatLng":{"lat":39.298333,"lng":-76.575397}}]},{"providedLocation":{"location":"3525 HANOVER ST, Baltimore MD"},"locations":[{"street":"3525 S Hanover St","adminArea6":"","adminArea6Type":"Neighborhood","adminArea5":"Brooklyn","adminArea5Type":"City","adminArea4":"Baltimore City","adminArea4Type":"County","adminArea3":"MD","adminArea3Type":"State","adminArea1":"US","adminArea1Type":"Country","postalCode":"21225-1731","geocodeQualityCode":"P1BAA","geocodeQuality":"POINT","dragPoint":false,"sideOfStreet":"L","linkId":"r20894639|p189120278|n27807496","unknownInput":"","type":"s","latLng":{"lat":39.239837,"lng":-76.608865},"displayLatLng":{"lat":39.239781,"lng":-76.608675}}]},{"providedLocation":{"location":"25 CROSS ST, Baltimore MD"},"locations":[{"street":"[601 - 631] Cross St","adminArea6":"","adminArea6Type":"Neighborhood","adminArea5":"Brooklyn","adminArea5Type":"City","adminArea4":"Anne Arundel","adminArea4Type":"County","adminArea3":"MD","adminArea3Type":"State","adminArea1":"US","adminArea1Type":"Country","postalCode":"21225","geocodeQualityCode":"B3AAA","geocodeQuality":"STREET","dragPoint":false,"sideOfStreet":"R","linkId":"rnr3131365|i27637771","unknownInput":"","type":"s","latLng":{"lat":39.222904,"lng":-76.603155},"displayLatLng":{"lat":39.22272,"lng":-76.603077}}]},{"providedLocation":{"location":"718 GRUNDY ST, Baltimore MD"},"locations":[{"street":"718 Grundy St","adminArea6":"","adminArea6Type":"Neighborhood","adminArea5":"Baltimore","adminArea5Type":"City","adminArea4":"Baltimore City","adminArea4Type":"County","adminArea3":"MD","adminArea3Type":"State","adminArea1":"US","adminArea1Type":"Country","postalCode":"21224-4343","geocodeQualityCode":"P1AAA","geocodeQuality":"POINT","dragPoint":false,"sideOfStreet":"R","linkId":"r20973095|p271052974|n27910782","unknownInput":"","type":"s","latLng":{"lat":39.28407,"lng":-76.563173},"displayLatLng":{"lat":39.284059,"lng":-76.563398}}]},{"providedLocation":{"location":"2825 O DONNELL ST, Baltimore MD"},"locations":[{"street":"2825 Odonnell St","adminArea6":"","adminArea6Type":"Neighborhood","adminArea5":"Baltimore","adminArea5Type":"City","adminArea4":"Baltimore City","adminArea4Type":"County","adminArea3":"MD","adminArea3Type":"State","adminArea1":"US","adminArea1Type":"Country","postalCode":"21224-4819","geocodeQualityCode":"P1AAA","geocodeQuality":"POINT","dragPoint":false,"sideOfStreet":"R","linkId":"r22952820|p186085919|n30562927","unknownInput":"","type":"s","latLng":{"lat":39.280022,"lng":-76.575885},"displayLatLng":{"lat":39.279847,"lng":-76.575866}}]},{"providedLocation":{"location":"18 20th ST, Baltimore MD"},"locations":[{"street":"18 W 20th St","adminArea6":"","adminArea6Type":"Neighborhood","adminArea5":"Baltimore","adminArea5Type":"City","adminArea4":"Baltimore City","adminArea4Type":"County","adminArea3":"MD","adminArea3Type":"State","adminArea1":"US","adminArea1Type":"Country","postalCode":"21218-6001","geocodeQualityCode":"P1BAA","geocodeQuality":"POINT","dragPoint":false,"sideOfStreet":"R","linkId":"r20895667|p187340445|n27822074","unknownInput":"","type":"s","latLng":{"lat":39.312167,"lng":-76.617465},"displayLatLng":{"lat":39.31234,"lng":-76.61747}}]},{"providedLocation":{"location":"8 BALTIMORE ST, Baltimore MD"},"locations":[{"street":"[3600 - 3714] Baltimore St","adminArea6":"","adminArea6Type":"Neighborhood","adminArea5":"Halethorpe","adminArea5Type":"City","adminArea4":"Baltimore","adminArea4Type":"County","adminArea3":"MD","adminArea3Type":"State","adminArea1":"US","adminArea1Type":"Country","postalCode":"21227-2214","geocodeQualityCode":"B3AAA","geocodeQuality":"STREET","dragPoint":false,"sideOfStreet":"R","linkId":"rnr795576|i27319618","unknownInput":"","type":"s","latLng":{"lat":39.24223,"lng":-76.63103},"displayLatLng":{"lat":39.242188,"lng":-76.631226}}]},{"providedLocation":{"location":"37 25TH ST, Baltimore MD"},"locations":[{"street":"37 E 25th St","adminArea6":"","adminArea6Type":"Neighborhood","adminArea5":"Baltimore","adminArea5Type":"City","adminArea4":"Baltimore City","adminArea4Type":"County","adminArea3":"MD","adminArea3Type":"State","adminArea1":"US","adminArea1Type":"Country","postalCode":"21218-5148","geocodeQualityCode":"P1BAA","geocodeQuality":"POINT","dragPoint":false,"sideOfStreet":"R","linkId":"r20998602|p188788936|n27936590","unknownInput":"","type":"s","latLng":{"lat":39.317858,"lng":-76.61555},"displayLatLng":{"lat":39.317716,"lng":-76.615554}}]},{"providedLocation":{"location":"225 READ ST, Baltimore MD"},"locations":[{"street":"225 W Read St","adminArea6":"","adminArea6Type":"Neighborhood","adminArea5":"Baltimore","adminArea5Type":"City","adminArea4":"Baltimore City","adminArea4Type":"County","adminArea3":"MD","adminArea3Type":"State","adminArea1":"US","adminArea1Type":"Country","postalCode":"21201-4808","geocodeQualityCode":"P1BAA","geocodeQuality":"POINT","dragPoint":false,"sideOfStreet":"L","linkId":"r20875972|p187755305|n27796956","unknownInput":"","type":"s","latLng":{"lat":39.300556,"lng":-76.619137},"displayLatLng":{"lat":39.300403,"lng":-76.619246}}]},{"providedLocation":{"location":"610 WOLFE ST, Baltimore MD"},"locations":[{"street":"610 S Wolfe St","adminArea6":"","adminArea6Type":"Neighborhood","adminArea5":"Baltimore","adminArea5Type":"City","adminArea4":"Baltimore City","adminArea4Type":"County","adminArea3":"MD","adminArea3Type":"State","adminArea1":"US","adminArea1Type":"Country","postalCode":"21231-3034","geocodeQualityCode":"P1BAA","geocodeQuality":"POINT","dragPoint":false,"sideOfStreet":"R","linkId":"r20926235|p187819793|n27848710","unknownInput":"","type":"s","latLng":{"lat":39.28441,"lng":-76.589999},"displayLatLng":{"lat":39.284397,"lng":-76.590208}}]},{"providedLocation":{"location":"301 ANN ST, Baltimore MD"},"locations":[{"street":"301 S Ann St","adminArea6":"","adminArea6Type":"Neighborhood","adminArea5":"Baltimore","adminArea5Type":"City","adminArea4":"Baltimore City","adminArea4Type":"County","adminArea3":"MD","adminArea3Type":"State","adminArea1":"US","adminArea1Type":"Country","postalCode":"21231-2503","geocodeQualityCode":"P1BAA","geocodeQuality":"POINT","dragPoint":false,"sideOfStreet":"L","linkId":"r23162068|p185279804|n30857673","unknownInput":"","type":"s","latLng":{"lat":39.287613,"lng":-76.591527},"displayLatLng":{"lat":39.287617,"lng":-76.591268}}]},{"providedLocation":{"location":"3000 O DONNELL ST, Baltimore MD"},"locations":[{"street":"3000 Odonnell St","adminArea6":"","adminArea6Type":"Neighborhood","adminArea5":"Baltimore","adminArea5Type":"City","adminArea4":"Baltimore City","adminArea4Type":"County","adminArea3":"MD","adminArea3Type":"State","adminArea1":"US","adminArea1Type":"Country","postalCode":"21224-4915","geocodeQualityCode":"P1AAA","geocodeQuality":"POINT","dragPoint":false,"sideOfStreet":"L","linkId":"r23174545|p186830403|n30849985","unknownInput":"","type":"s","latLng":{"lat":39.28041,"lng":-76.573809},"displayLatLng":{"lat":39.280599,"lng":-76.573827}}]},{"providedLocation":{"location":"1831 MOSHER ST, Baltimore MD"},"locations":[{"street":"1831 Mosher St","adminArea6":"","adminArea6Type":"Neighborhood","adminArea5":"Baltimore","adminArea5Type":"City","adminArea4":"Baltimore City","adminArea4Type":"County","adminArea3":"MD","adminArea3Type":"State","adminArea1":"US","adminArea1Type":"Country","postalCode":"21217-1451","geocodeQualityCode":"P1AAA","geocodeQuality":"POINT","dragPoint":false,"sideOfStreet":"L","linkId":"r20947590|p186742695|n27873274","unknownInput":"","type":"s","latLng":{"lat":39.299769,"lng":-76.64742},"displayLatLng":{"lat":39.299676,"lng":-76.647416}}]},{"providedLocation":{"location":"604 POPLAR GROVE ST, Baltimore MD"},"locations":[{"street":"604 Poplar Grove St","adminArea6":"","adminArea6Type":"Neighborhood","adminArea5":"Baltimore","adminArea5Type":"City","adminArea4":"Baltimore City","adminArea4Type":"County","adminArea3":"MD","adminArea3Type":"State","adminArea1":"US","adminArea1Type":"Country","postalCode":"21216-4618","geocodeQualityCode":"L1AAA","geocodeQuality":"ADDRESS","dragPoint":false,"sideOfStreet":"L","linkId":"rnr7143132|i30961254","unknownInput":"","type":"s","latLng":{"lat":39.294515,"lng":-76.664924},"displayLatLng":{"lat":39.294504,"lng":-76.665124}}]},{"providedLocation":{"location":"419 BALTIMORE ST, Baltimore MD"},"locations":[{"street":"[3601 - 3715] Baltimore St","adminArea6":"","adminArea6Type":"Neighborhood","adminArea5":"Halethorpe","adminArea5Type":"City","adminArea4":"Baltimore County","adminArea4Type":"County","adminArea3":"MD","adminArea3Type":"State","adminArea1":"US","adminArea1Type":"Country","postalCode":"21227","geocodeQualityCode":"B3AAA","geocodeQuality":"STREET","dragPoint":false,"sideOfStreet":"L","linkId":"rnr795729|i27320740","unknownInput":"","type":"s","latLng":{"lat":39.24223,"lng":-76.63103},"displayLatLng":{"lat":39.242273,"lng":-76.630835}}]},{"providedLocation":{"location":"2036 EASTERN AVE, Baltimore MD"},"locations":[{"street":"2036 Eastern Ave","adminArea6":"","adminArea6Type":"Neighborhood","adminArea5":"Baltimore","adminArea5Type":"City","adminArea4":"Baltimore City","adminArea4Type":"County","adminArea3":"MD","adminArea3Type":"State","adminArea1":"US","adminArea1Type":"Country","postalCode":"21231-3039","geocodeQualityCode":"P1AAA","geocodeQuality":"POINT","dragPoint":false,"sideOfStreet":"L","linkId":"r23481894|p186545589|n31456505","unknownInput":"","type":"s","latLng":{"lat":39.285814,"lng":-76.587863},"displayLatLng":{"lat":39.285991,"lng":-76.587855}}]},{"providedLocation":{"location":"737 CARROLL ST, Baltimore MD"},"locations":[{"street":"737 Carroll St","adminArea6":"","adminArea6Type":"Neighborhood","adminArea5":"Baltimore","adminArea5Type":"City","adminArea4":"Baltimore City","adminArea4Type":"County","adminArea3":"MD","adminArea3Type":"State","adminArea1":"US","adminArea1Type":"Country","postalCode":"21230-2302","geocodeQualityCode":"P1AAA","geocodeQuality":"POINT","dragPoint":false,"sideOfStreet":"L","linkId":"r23331151|p188145448|n31088801","unknownInput":"","type":"s","latLng":{"lat":39.282172,"lng":-76.627116},"displayLatLng":{"lat":39.282012,"lng":-76.627082}}]},{"providedLocation":{"location":"4810 CURTIS AVE, Baltimore MD"},"locations":[{"street":"4810 Curtis Ave","adminArea6":"","adminArea6Type":"Neighborhood","adminArea5":"Curtis Bay","adminArea5Type":"City","adminArea4":"Anne Arundel","adminArea4Type":"County","adminArea3":"MD","adminArea3Type":"State","adminArea1":"US","adminArea1Type":"Country","postalCode":"21226-1402","geocodeQualityCode":"P1AAA","geocodeQuality":"POINT","dragPoint":false,"sideOfStreet":"R","linkId":"r20929455|p193396047|n27843974","unknownInput":"","type":"s","latLng":{"lat":39.222638,"lng":-76.586563},"displayLatLng":{"lat":39.222621,"lng":-76.586762}}]},{"providedLocation":{"location":"801 BROADWAY, Baltimore MD"},"locations":[{"street":"801 S Broadway","adminArea6":"","adminArea6Type":"Neighborhood","adminArea5":"Baltimore","adminArea5Type":"City","adminArea4":"Baltimore City","adminArea4Type":"County","adminArea3":"MD","adminArea3Type":"State","adminArea1":"US","adminArea1Type":"Country","postalCode":"21231-3409","geocodeQualityCode":"P1BAA","geocodeQuality":"POINT","dragPoint":false,"sideOfStreet":"L","linkId":"r23194649|p187410550|n31024121","unknownInput":"","type":"s","latLng":{"lat":39.282481,"lng":-76.592917},"displayLatLng":{"lat":39.282495,"lng":-76.592683}}]},{"providedLocation":{"location":"4806 HOLABIRD AVE, Baltimore MD"},"locations":[{"street":"4806 Holabird Ave","adminArea6":"","adminArea6Type":"Neighborhood","adminArea5":"Baltimore","adminArea5Type":"City","adminArea4":"Baltimore City","adminArea4Type":"County","adminArea3":"MD","adminArea3Type":"State","adminArea1":"US","adminArea1Type":"Country","postalCode":"21224-6017","geocodeQualityCode":"P1AAA","geocodeQuality":"POINT","dragPoint":false,"sideOfStreet":"L","linkId":"r21123838|p187693833|n28129138","unknownInput":"","type":"s","latLng":{"lat":39.271682,"lng":-76.554292},"displayLatLng":{"lat":39.271857,"lng":-76.554301}}]},{"providedLocation":{"location":"Hayward Ave, Baltimore MD"},"locations":[{"street":"[3100 - 4399] Hayward Ave","adminArea6":"","adminArea6Type":"Neighborhood","adminArea5":"Baltimore","adminArea5Type":"City","adminArea4":"Baltimore City","adminArea4Type":"County","adminArea3":"MD","adminArea3Type":"State","adminArea1":"US","adminArea1Type":"Country","postalCode":"21215","geocodeQualityCode":"B1AAA","geocodeQuality":"STREET","dragPoint":false,"sideOfStreet":"M","linkId":"rnr4539574","unknownInput":"","type":"s","latLng":{"lat":39.345562,"lng":-76.685549},"displayLatLng":{"lat":39.345562,"lng":-76.685549}}]},{"providedLocation":{"location":"133 NORTH AVE, Baltimore MD"},"locations":[{"street":"[1001 - 1099] North Ave","adminArea6":"","adminArea6Type":"Neighborhood","adminArea5":"Essex","adminArea5Type":"City","adminArea4":"Baltimore","adminArea4Type":"County","adminArea3":"MD","adminArea3Type":"State","adminArea1":"US","adminArea1Type":"Country","postalCode":"21221-3750","geocodeQualityCode":"B3AAA","geocodeQuality":"STREET","dragPoint":false,"sideOfStreet":"R","linkId":"rnr6464426|i27538161","unknownInput":"","type":"s","latLng":{"lat":39.310157,"lng":-76.459961},"displayLatLng":{"lat":39.310006,"lng":-76.459831}}]},{"providedLocation":{"location":"2709 11 WASHINGTON BLVD, Baltimore MD"},"locations":[{"street":"2709 Washington Blvd, 11","adminArea6":"","adminArea6Type":"Neighborhood","adminArea5":"Baltimore","adminArea5Type":"City","adminArea4":"Baltimore City","adminArea4Type":"County","adminArea3":"MD","adminArea3Type":"State","adminArea1":"US","adminArea1Type":"Country","postalCode":"21230-1410","geocodeQualityCode":"P1AAA","geocodeQuality":"POINT","dragPoint":false,"sideOfStreet":"L","linkId":"r21397070|p188612756|n28510756","unknownInput":"","type":"s","latLng":{"lat":39.26446,"lng":-76.654852},"displayLatLng":{"lat":39.264375,"lng":-76.654726}}]},{"providedLocation":{"location":"6200 REISTERSTOWN RD, Baltimore MD"},"locations":[{"street":"6200 Reisterstown Rd","adminArea6":"","adminArea6Type":"Neighborhood","adminArea5":"Baltimore","adminArea5Type":"City","adminArea4":"Baltimore City","adminArea4Type":"County","adminArea3":"MD","adminArea3Type":"State","adminArea1":"US","adminArea1Type":"Country","postalCode":"21215-3425","geocodeQualityCode":"P1AAA","geocodeQuality":"POINT","dragPoint":false,"sideOfStreet":"L","linkId":"r20981271|p187133860|n27920353","unknownInput":"","type":"s","latLng":{"lat":39.353794,"lng":-76.69899},"displayLatLng":{"lat":39.353706,"lng":-76.69909}}]},{"providedLocation":{"location":"1519 RIGGS AVE, Baltimore MD"},"locations":[{"street":"1519 Riggs Ave","adminArea6":"","adminArea6Type":"Neighborhood","adminArea5":"Baltimore","adminArea5Type":"City","adminArea4":"Baltimore City","adminArea4Type":"County","adminArea3":"MD","adminArea3Type":"State","adminArea1":"US","adminArea1Type":"Country","postalCode":"21217-2235","geocodeQualityCode":"P1AAA","geocodeQuality":"POINT","dragPoint":false,"sideOfStreet":"L","linkId":"r20933448|p187218670|n27864288","unknownInput":"","type":"s","latLng":{"lat":39.301062,"lng":-76.642297},"displayLatLng":{"lat":39.300937,"lng":-76.642288}}]},{"providedLocation":{"location":"24 FAYETTE ST, Baltimore MD"},"locations":[{"street":"24 W Fayette St","adminArea6":"","adminArea6Type":"Neighborhood","adminArea5":"Baltimore","adminArea5Type":"City","adminArea4":"Baltimore City","adminArea4Type":"County","adminArea3":"MD","adminArea3Type":"State","adminArea1":"US","adminArea1Type":"Country","postalCode":"21201","geocodeQualityCode":"L1BAA","geocodeQuality":"ADDRESS","dragPoint":false,"sideOfStreet":"R","linkId":"rnr9637428|i27944602","unknownInput":"","type":"s","latLng":{"lat":39.290374,"lng":-76.615199},"displayLatLng":{"lat":39.290574,"lng":-76.615211}}]}]}
