{"info":{"statuscode":0,"copyright":{"text":"\u00A9 2020 MapQuest, Inc.","imageUrl":"http://api.mqcdn.com/res/mqlogo.gif","imageAltText":"\u00A9 2020 MapQuest, Inc."},"messages":[]},"options":{"maxResults":1,"thumbMaps":false,"ignoreLatLngInput":false},"results":[{"providedLocation":{"location":"4509 BELAIR ROAD, Baltimore MD"},"locations":[{"street":"4509 Belair Rd","adminArea6":"","adminArea6Type":"Neighborhood","adminArea5":"Baltimore","adminArea5Type":"City","adminArea4":"Baltimore City","adminArea4Type":"County","adminArea3":"MD","adminArea3Type":"State","adminArea1":"US","adminArea1Type":"Country","postalCode":"21206-6338","geocodeQualityCode":"P1AAA","geocodeQuality":"POINT","dragPoint":false,"sideOfStreet":"R","linkId":"r20947358|p195929715|n27883970","unknownInput":"","type":"s","latLng":{"lat":39.330647,"lng":-76.562164},"displayLatLng":{"lat":39.330541,"lng":-76.56207}}]},{"providedLocation":{"location":"1919 FLEET ST, Baltimore MD"},"locations":[{"street":"1919 Fleet St","adminArea6":"","adminArea6Type":"Neighborhood","adminArea5":"Baltimore","adminArea5Type":"City","adminArea4":"Baltimore City","adminArea4Type":"County","adminArea3":"MD","adminArea3Type":"State","adminArea1":"US","adminArea1Type":"Country","postalCode":"21231-3022","geocodeQualityCode":"P1AAA","geocodeQuality":"POINT","dragPoint":false,"sideOfStreet":"R","linkId":"r20890986|p186458552|n27809588","unknownInput":"","type":"s","latLng":{"lat":39.284708,"lng":-76.589436},"displayLatLng":{"lat":39.28455,"lng":-76.589413}}]},{"providedLocation":{"location":"2844 HUDSON ST, Baltimore MD"},"locations":[{"street":"2844 Hudson St","adminArea6":"","adminArea6Type":"Neighborhood","adminArea5":"Baltimore","adminArea5Type":"City","adminArea4":"Baltimore City","adminArea4Type":"County","adminArea3":"MD","adminArea3Type":"State","adminArea1":"US","adminArea1Type":"Country","postalCode":"21224-4803","geocodeQualityCode":"P1AAA","geocodeQuality":"POINT","dragPoint":false,"sideOfStreet":"L","linkId":"r20928169|p188864059|n27862852","unknownInput":"","type":"s","latLng":{"lat":39.282205,"lng":-76.575681},"displayLatLng":{"lat":39.282382,"lng":-76.575696}}]},{"providedLocation":{"location":"3998 ROLAND AVE, Baltimore MD"},"locations":[{"street":"3998 Roland Ave","adminArea6":"","adminArea6Type":"Neighborhood","adminArea5":"Baltimore","adminArea5Type":"City","adminArea4":"Baltimore City","adminArea4Type":"County","adminArea3":"MD","adminArea3Type":"State","adminArea1":"US","adminArea1Type":"Country","postalCode":"21211-2018","geocodeQualityCode":"P1AAA","geocodeQuality":"POINT","dragPoint":false,"sideOfStreet":"L","linkId":"r21238968|p188210894|n28309207","unknownInput":"","type":"s","latLng":{"lat":39.337163,"lng":-76.633047},"displayLatLng":{"lat":39.337118,"lng":-76.633252}}]},{"providedLocation":{"location":"2481 frederick ave, Baltimore MD"},"locations":[{"street":"2481 Frederick Ave","adminArea6":"","adminArea6Type":"Neighborhood","adminArea5":"Baltimore","adminArea5Type":"City","adminArea4":"Baltimore City","adminArea4Type":"County","adminArea3":"MD","adminArea3Type":"State","adminArea1":"US","adminArea1Type":"Country","postalCode":"21223-2856","geocodeQualityCode":"L1AAA","geocodeQuality":"ADDRESS","dragPoint":false,"sideOfStreet":"L","linkId":"rnr4120468|i31015781","unknownInput":"","type":"s","latLng":{"lat":39.283551,"lng":-76.655653},"displayLatLng":{"lat":39.283385,"lng":-76.655543}}]},{"providedLocation":{"location":"2722 HARFORD RD, Baltimore MD"},"locations":[{"street":"2722 Harford Rd","adminArea6":"","adminArea6Type":"Neighborhood","adminArea5":"Baltimore","adminArea5Type":"City","adminArea4":"Baltimore City","adminArea4Type":"County","adminArea3":"MD","adminArea3Type":"State","adminArea1":"US","adminArea1Type":"Country","postalCode":"21218-4930","geocodeQualityCode":"P1AAA","geocodeQuality":"POINT","dragPoint":false,"sideOfStreet":"R","linkId":"r21141617|p185800839|n28168960","unknownInput":"","type":"s","latLng":{"lat":39.320767,"lng":-76.591188},"displayLatLng":{"lat":39.32083,"lng":-76.591279}}]},{"providedLocation":{"location":"2510 MCELDERRY ST, Baltimore MD"},"locations":[{"street":"2510 McElderry St","adminArea6":"","adminArea6Type":"Neighborhood","adminArea5":"Baltimore","adminArea5Type":"City","adminArea4":"Baltimore City","adminArea4Type":"County","adminArea3":"MD","adminArea3Type":"State","adminArea1":"US","adminArea1Type":"Country","postalCode":"21205-2537","geocodeQualityCode":"P1AAA","geocodeQuality":"POINT","dragPoint":false,"sideOfStreet":"L","linkId":"r21032057|p185867613|n27976242","unknownInput":"","type":"s","latLng":{"lat":39.297788,"lng":-76.581417},"displayLatLng":{"lat":39.297947,"lng":-76.581422}}]},{"providedLocation":{"location":"2701 MILES AVE, Baltimore MD"},"locations":[{"street":"2701 Miles Ave","adminArea6":"","adminArea6Type":"Neighborhood","adminArea5":"Baltimore","adminArea5Type":"City","adminArea4":"Baltimore City","adminArea4Type":"County","adminArea3":"MD","adminArea3Type":"State","adminArea1":"US","adminArea1Type":"Country","postalCode":"21211-3015","geocodeQualityCode":"P1AAA","geocodeQuality":"POINT","dragPoint":false,"sideOfStreet":"R","linkId":"r20849894|p186555209|n27779569","unknownInput":"","type":"s","latLng":{"lat":39.31959,"lng":-76.622742},"displayLatLng":{"lat":39.319683,"lng":-76.622554}}]},{"providedLocation":{"location":"2518 MONUMENT ST, Baltimore MD"},"locations":[{"street":"2518 E Monument St","adminArea6":"","adminArea6Type":"Neighborhood","adminArea5":"Baltimore","adminArea5Type":"City","adminArea4":"Baltimore City","adminArea4Type":"County","adminArea3":"MD","adminArea3Type":"State","adminArea1":"US","adminArea1Type":"Country","postalCode":"21205-2511","geocodeQualityCode":"P1BAA","geocodeQuality":"POINT","dragPoint":false,"sideOfStreet":"L","linkId":"r23868796|p187393168|n31831228","unknownInput":"","type":"s","latLng":{"lat":39.298863,"lng":-76.581675},"displayLatLng":{"lat":39.299052,"lng":-76.581704}}]},{"providedLocation":{"location":"300 ANN ST, Baltimore MD"},"locations":[{"street":"300 S Ann St","adminArea6":"","adminArea6Type":"Neighborhood","adminArea5":"Baltimore","adminArea5Type":"City","adminArea4":"Baltimore City","adminArea4Type":"County","adminArea3":"MD","adminArea3Type":"State","adminArea1":"US","adminArea1Type":"Country","postalCode":"21231-2502","geocodeQualityCode":"P1BAA","geocodeQuality":"POINT","dragPoint":false,"sideOfStreet":"R","linkId":"r23162068|p187153670|n30857673","unknownInput":"","type":"s","latLng":{"lat":39.287597,"lng":-76.591526},"displayLatLng":{"lat":39.287585,"lng":-76.591721}}]},{"providedLocation":{"location":"1600 HAZEL ST, Baltimore MD"},"locations":[{"street":"1600 Hazel St","adminArea6":"","adminArea6Type":"Neighborhood","adminArea5":"Curtis Bay","adminArea5Type":"City","adminArea4":"Anne Arundel","adminArea4Type":"County","adminArea3":"MD","adminArea3Type":"State","adminArea1":"US","adminArea1Type":"Country","postalCode":"21226-1343","geocodeQualityCode":"P1AAA","geocodeQuality":"POINT","dragPoint":false,"sideOfStreet":"L","linkId":"r22906423|p185343331|n30505628","unknownInput":"","type":"s","latLng":{"lat":39.226037,"lng":-76.588395},"displayLatLng":{"lat":39.226249,"lng":-76.588409}}]},{"providedLocation":{"location":"5302 REISTERSTOWN RD, Baltimore MD"},"locations":[{"street":"5302 Reisterstown Rd","adminArea6":"","adminArea6Type":"Neighborhood","adminArea5":"Baltimore","adminArea5Type":"City","adminArea4":"Baltimore City","adminArea4Type":"County","adminArea3":"MD","adminArea3Type":"State","adminArea1":"US","adminArea1Type":"Country","postalCode":"21215-4402","geocodeQualityCode":"P1AAA","geocodeQuality":"POINT","dragPoint":false,"sideOfStreet":"L","linkId":"r23252122|p188343326|n30960608","unknownInput":"","type":"s","latLng":{"lat":39.345203,"lng":-76.686753},"displayLatLng":{"lat":39.345115,"lng":-76.686855}}]},{"providedLocation":{"location":"743 MONTFORD ST, Baltimore MD"},"locations":[{"street":"","adminArea6":"","adminArea6Type":"Neighborhood","adminArea5":"Baltimore","adminArea5Type":"City","adminArea4":"Baltimore City","adminArea4Type":"County","adminArea3":"MD","adminArea3Type":"State","adminArea1":"US","adminArea1Type":"Country","postalCode":"","geocodeQualityCode":"A5XAX","geocodeQuality":"CITY","dragPoint":false,"sideOfStreet":"N","linkId":"282039684","unknownInput":"","type":"s","latLng":{"lat":39.290443,"lng":-76.612333},"displayLatLng":{"lat":39.290443,"lng":-76.612333}}]},{"providedLocation":{"location":"5625 O DONNELL ST, Baltimore MD"},"locations":[{"street":"5625 O'Donnell St","adminArea6":"","adminArea6Type":"Neighborhood","adminArea5":"Baltimore","adminArea5Type":"City","adminArea4":"Baltimore City","adminArea4Type":"County","adminArea3":"MD","adminArea3Type":"State","adminArea1":"US","adminArea1Type":"Country","postalCode":"21224-4630","geocodeQualityCode":"P1AAA","geocodeQuality":"POINT","dragPoint":false,"sideOfStreet":"R","linkId":"r23886863|p185993740|n31847779","unknownInput":"","type":"s","latLng":{"lat":39.28128,"lng":-76.547405},"displayLatLng":{"lat":39.281135,"lng":-76.547398}}]},{"providedLocation":{"location":"219 BALTIMORE ST, Baltimore MD"},"locations":[{"street":"[3601 - 3715] Baltimore St","adminArea6":"","adminArea6Type":"Neighborhood","adminArea5":"Halethorpe","adminArea5Type":"City","adminArea4":"Baltimore County","adminArea4Type":"County","adminArea3":"MD","adminArea3Type":"State","adminArea1":"US","adminArea1Type":"Country","postalCode":"21227","geocodeQualityCode":"B3AAA","geocodeQuality":"STREET","dragPoint":false,"sideOfStreet":"L","linkId":"rnr795729|i27320740","unknownInput":"","type":"s","latLng":{"lat":39.24223,"lng":-76.63103},"displayLatLng":{"lat":39.242273,"lng":-76.630835}}]},{"providedLocation":{"location":"58 BIDDLE STREET, Baltimore MD"},"locations":[{"street":"","adminArea6":"","adminArea6Type":"Neighborhood","adminArea5":"Baltimore","adminArea5Type":"City","adminArea4":"Baltimore City","adminArea4Type":"County","adminArea3":"MD","adminArea3Type":"State","adminArea1":"US","adminArea1Type":"Country","postalCode":"","geocodeQualityCode":"A5XAX","geocodeQuality":"CITY","dragPoint":false,"sideOfStreet":"N","linkId":"282039684","unknownInput":"","type":"s","latLng":{"lat":39.290443,"lng":-76.612333},"displayLatLng":{"lat":39.290443,"lng":-76.612333}}]},{"providedLocation":{"location":"2003 MONUMENT ST, Baltimore MD"},"locations":[{"street":"2003 E Monument St","adminArea6":"","adminArea6Type":"Neighborhood","adminArea5":"Baltimore","adminArea5Type":"City","adminArea4":"Baltimore City","adminArea4Type":"County","adminArea3":"MD","adminArea3Type":"State","adminArea1":"US","adminArea1Type":"Country","postalCode":"21205-2216","geocodeQualityCode":"P1BAA","geocodeQuality":"POINT","dragPoint":false,"sideOfStreet":"R","linkId":"r21064561|p188323268|n28058216","unknownInput":"","type":"s","latLng":{"lat":39.298563,"lng":-76.589311},"displayLatLng":{"lat":39.298389,"lng":-76.589304}}]},{"providedLocation":{"location":"4718 EASTERN AVE, Baltimore MD"},"locations":[{"street":"4718 Eastern Ave","adminArea6":"","adminArea6Type":"Neighborhood","adminArea5":"Baltimore","adminArea5Type":"City","adminArea4":"Baltimore City","adminArea4Type":"County","adminArea3":"MD","adminArea3Type":"State","adminArea1":"US","adminArea1Type":"Country","postalCode":"21224-4419","geocodeQualityCode":"P1AAA","geocodeQuality":"POINT","dragPoint":false,"sideOfStreet":"L","linkId":"r20921483|p185496116|n27851488","unknownInput":"","type":"s","latLng":{"lat":39.287057,"lng":-76.555997},"displayLatLng":{"lat":39.287261,"lng":-76.556004}}]},{"providedLocation":{"location":"818 BROADWAY, Baltimore MD"},"locations":[{"street":"818 S Broadway","adminArea6":"","adminArea6Type":"Neighborhood","adminArea5":"Baltimore","adminArea5Type":"City","adminArea4":"Baltimore City","adminArea4Type":"County","adminArea3":"MD","adminArea3Type":"State","adminArea1":"US","adminArea1Type":"Country","postalCode":"21231","geocodeQualityCode":"P1BAA","geocodeQuality":"POINT","dragPoint":false,"sideOfStreet":"R","linkId":"r23401345|p195621844|n31313126","unknownInput":"","type":"s","latLng":{"lat":39.281859,"lng":-76.593423},"displayLatLng":{"lat":39.281805,"lng":-76.59365}}]},{"providedLocation":{"location":"2522 WASHINGTON BLVD, Baltimore MD"},"locations":[{"street":"2522 Washington Blvd","adminArea6":"","adminArea6Type":"Neighborhood","adminArea5":"Baltimore","adminArea5Type":"City","adminArea4":"Baltimore City","adminArea4Type":"County","adminArea3":"MD","adminArea3Type":"State","adminArea1":"US","adminArea1Type":"Country","postalCode":"21230-1407","geocodeQualityCode":"P1AAA","geocodeQuality":"POINT","dragPoint":false,"sideOfStreet":"R","linkId":"r20858710|p186319794|n27761011","unknownInput":"","type":"s","latLng":{"lat":39.266326,"lng":-76.652779},"displayLatLng":{"lat":39.266499,"lng":-76.652983}}]},{"providedLocation":{"location":"6500 RIVERVIEW AVE, Baltimore MD"},"locations":[{"street":"6500 Riverview Ave","adminArea6":"","adminArea6Type":"Neighborhood","adminArea5":"Dundalk","adminArea5Type":"City","adminArea4":"Baltimore","adminArea4Type":"County","adminArea3":"MD","adminArea3Type":"State","adminArea1":"US","adminArea1Type":"Country","postalCode":"21222-4008","geocodeQualityCode":"P1AAA","geocodeQuality":"POINT","dragPoint":false,"sideOfStreet":"L","linkId":"r20910055|p187258811|n27832464","unknownInput":"","type":"s","latLng":{"lat":39.257436,"lng":-76.531395},"displayLatLng":{"lat":39.257658,"lng":-76.531408}}]},{"providedLocation":{"location":"823 CHARLES ST, Baltimore MD"},"locations":[{"street":"[211 - 299] Charles St","adminArea6":"","adminArea6Type":"Neighborhood","adminArea5":"Brooklyn","adminArea5Type":"City","adminArea4":"Baltimore City","adminArea4Type":"County","adminArea3":"MD","adminArea3Type":"State","adminArea1":"US","adminArea1Type":"Country","postalCode":"21225-2846","geocodeQualityCode":"B3AAA","geocodeQuality":"STREET","dragPoint":false,"sideOfStreet":"R","linkId":"rnr2361827|i31134039","unknownInput":"","type":"s","latLng":{"lat":39.23069,"lng":-76.610955},"displayLatLng":{"lat":39.230501,"lng":-76.611019}}]},{"providedLocation":{"location":"2407 FREDERICK AVE, Baltimore MD"},"locations":[{"street":"2407 Frederick Ave","adminArea6":"","adminArea6Type":"Neighborhood","adminArea5":"Baltimore","adminArea5Type":"City","adminArea4":"Baltimore City","adminArea4Type":"County","adminArea3":"MD","adminArea3Type":"State","adminArea1":"US","adminArea1Type":"Country","postalCode":"21223-2856","geocodeQualityCode":"P1AAA","geocodeQuality":"POINT","dragPoint":false,"sideOfStreet":"L","linkId":"r23272560|p188259284|n30991263","unknownInput":"","type":"s","latLng":{"lat":39.28337,"lng":-76.655927},"displayLatLng":{"lat":39.282714,"lng":-76.655295}}]},{"providedLocation":{"location":"306 HIGH ST, Baltimore MD"},"locations":[{"street":"306 S High St","adminArea6":"","adminArea6Type":"Neighborhood","adminArea5":"Baltimore","adminArea5Type":"City","adminArea4":"Baltimore City","adminArea4Type":"County","adminArea3":"MD","adminArea3Type":"State","adminArea1":"US","adminArea1Type":"Country","postalCode":"21202-4333","geocodeQualityCode":"P1BAA","geocodeQuality":"POINT","dragPoint":false,"sideOfStreet":"R","linkId":"r23018700|p187682612|n30651783","unknownInput":"","type":"s","latLng":{"lat":39.286061,"lng":-76.601668},"displayLatLng":{"lat":39.285983,"lng":-76.601875}}]},{"providedLocation":{"location":"1939 FLEET ST, Baltimore MD"},"locations":[{"street":"1939 Fleet St","adminArea6":"","adminArea6Type":"Neighborhood","adminArea5":"Baltimore","adminArea5Type":"City","adminArea4":"Baltimore City","adminArea4Type":"County","adminArea3":"MD","adminArea3Type":"State","adminArea1":"US","adminArea1Type":"Country","postalCode":"21231-3024","geocodeQualityCode":"P1AAA","geocodeQuality":"POINT","dragPoint":false,"sideOfStreet":"R","linkId":"r23296572|p205242507|n31013281","unknownInput":"","type":"s","latLng":{"lat":39.284739,"lng":-76.588893},"displayLatLng":{"lat":39.284573,"lng":-76.588862}}]},{"providedLocation":{"location":"710 BROADWAY, Baltimore MD"},"locations":[{"street":"710 S Broadway","adminArea6":"","adminArea6Type":"Neighborhood","adminArea5":"Baltimore","adminArea5Type":"City","adminArea4":"Baltimore City","adminArea4Type":"County","adminArea3":"MD","adminArea3Type":"State","adminArea1":"US","adminArea1Type":"Country","postalCode":"21231-3406","geocodeQualityCode":"P1BAA","geocodeQuality":"POINT","dragPoint":false,"sideOfStreet":"R","linkId":"r22997487|p186718491|n30612088","unknownInput":"","type":"s","latLng":{"lat":39.283155,"lng":-76.593489},"displayLatLng":{"lat":39.283155,"lng":-76.593695}}]},{"providedLocation":{"location":"2401 LIBERTY HEIGHTS AVE, Baltimore MD"},"locations":[{"street":"2401 Liberty Heights Ave","adminArea6":"","adminArea6Type":"Neighborhood","adminArea5":"Baltimore","adminArea5Type":"City","adminArea4":"Baltimore City","adminArea4Type":"County","adminArea3":"MD","adminArea3Type":"State","adminArea1":"US","adminArea1Type":"Country","postalCode":"21215-8001","geocodeQualityCode":"L1AAA","geocodeQuality":"ADDRESS","dragPoint":false,"sideOfStreet":"L","linkId":"rnr5417133|i27373550","unknownInput":"","type":"s","latLng":{"lat":39.318702,"lng":-76.653964},"displayLatLng":{"lat":39.318511,"lng":-76.654024}}]},{"providedLocation":{"location":"2105 FREDERICK AVE, Baltimore MD"},"locations":[{"street":"2105 Frederick Ave","adminArea6":"","adminArea6Type":"Neighborhood","adminArea5":"Baltimore","adminArea5Type":"City","adminArea4":"Baltimore City","adminArea4Type":"County","adminArea3":"MD","adminArea3Type":"State","adminArea1":"US","adminArea1Type":"Country","postalCode":"21223-2207","geocodeQualityCode":"P1AAA","geocodeQuality":"POINT","dragPoint":false,"sideOfStreet":"L","linkId":"r21141892|p186669727|n28148196","unknownInput":"","type":"s","latLng":{"lat":39.28564,"lng":-76.6502},"displayLatLng":{"lat":39.28553,"lng":-76.650112}}]},{"providedLocation":{"location":"206 REDWOOD ST, Baltimore MD"},"locations":[{"street":"206 E Redwood St","adminArea6":"","adminArea6Type":"Neighborhood","adminArea5":"Baltimore","adminArea5Type":"City","adminArea4":"Baltimore City","adminArea4Type":"County","adminArea3":"MD","adminArea3Type":"State","adminArea1":"US","adminArea1Type":"Country","postalCode":"21202-3312","geocodeQualityCode":"P1BAA","geocodeQuality":"POINT","dragPoint":false,"sideOfStreet":"L","linkId":"r23153058|p185727529|n30840278","unknownInput":"","type":"s","latLng":{"lat":39.288943,"lng":-76.611483},"displayLatLng":{"lat":39.289108,"lng":-76.611498}}]},{"providedLocation":{"location":"2809 BOSTON ST, Baltimore MD"},"locations":[{"street":"2809 Boston St","adminArea6":"","adminArea6Type":"Neighborhood","adminArea5":"Baltimore","adminArea5Type":"City","adminArea4":"Baltimore City","adminArea4Type":"County","adminArea3":"MD","adminArea3Type":"State","adminArea1":"US","adminArea1Type":"Country","postalCode":"21224-4808","geocodeQualityCode":"P1AAA","geocodeQuality":"POINT","dragPoint":false,"sideOfStreet":"R","linkId":"r20900790|p186230255|n27826229","unknownInput":"","type":"s","latLng":{"lat":39.278268,"lng":-76.575794},"displayLatLng":{"lat":39.278086,"lng":-76.575867}}]},{"providedLocation":{"location":"1038 LIGHT ST, Baltimore MD"},"locations":[{"street":"1038 Light St","adminArea6":"","adminArea6Type":"Neighborhood","adminArea5":"Baltimore","adminArea5Type":"City","adminArea4":"Baltimore City","adminArea4Type":"County","adminArea3":"MD","adminArea3Type":"State","adminArea1":"US","adminArea1Type":"Country","postalCode":"21230-4031","geocodeQualityCode":"P1AAA","geocodeQuality":"POINT","dragPoint":false,"sideOfStreet":"R","linkId":"r20799194|p188851542|n27725126","unknownInput":"","type":"s","latLng":{"lat":39.27742,"lng":-76.612413},"displayLatLng":{"lat":39.277391,"lng":-76.61265}}]},{"providedLocation":{"location":"3820 PRATT ST, Baltimore MD"},"locations":[{"street":"3820 E Pratt St","adminArea6":"","adminArea6Type":"Neighborhood","adminArea5":"Baltimore","adminArea5Type":"City","adminArea4":"Baltimore City","adminArea4Type":"County","adminArea3":"MD","adminArea3Type":"State","adminArea1":"US","adminArea1Type":"Country","postalCode":"21224-2541","geocodeQualityCode":"P1BAA","geocodeQuality":"POINT","dragPoint":false,"sideOfStreet":"L","linkId":"r20860577|p188788651|n27765484","unknownInput":"","type":"s","latLng":{"lat":39.290366,"lng":-76.56464},"displayLatLng":{"lat":39.290551,"lng":-76.564633}}]},{"providedLocation":{"location":"401 BALTIMORE ST, Baltimore MD"},"locations":[{"street":"[3601 - 3715] Baltimore St","adminArea6":"","adminArea6Type":"Neighborhood","adminArea5":"Halethorpe","adminArea5Type":"City","adminArea4":"Baltimore County","adminArea4Type":"County","adminArea3":"MD","adminArea3Type":"State","adminArea1":"US","adminArea1Type":"Country","postalCode":"21227","geocodeQualityCode":"B3AAA","geocodeQuality":"STREET","dragPoint":false,"sideOfStreet":"L","linkId":"rnr795729|i27320740","unknownInput":"","type":"s","latLng":{"lat":39.24223,"lng":-76.63103},"displayLatLng":{"lat":39.242273,"lng":-76.630835}}]},{"providedLocation":{"location":"401 BALTIMORE ST, Baltimore MD"},"locations":[{"street":"[3601 - 3715] Baltimore St","adminArea6":"","adminArea6Type":"Neighborhood","adminArea5":"Halethorpe","adminArea5Type":"City","adminArea4":"Baltimore County","adminArea4Type":"County","adminArea3":"MD","adminArea3Type":"State","adminArea1":"US","adminArea1Type":"Country","postalCode":"21227","geocodeQualityCode":"B3AAA","geocodeQuality":"STREET","dragPoint":false,"sideOfStreet":"L","linkId":"rnr795729|i27320740","unknownInput":"","type":"s","latLng":{"lat":39.24223,"lng":-76.63103},"displayLatLng":{"lat":39.242273,"lng":-76.630835}}]},{"providedLocation":{"location":"5860 BELAIR RD, Baltimore MD"},"locations":[{"street":"5860 Belair Rd","adminArea6":"","adminArea6Type":"Neighborhood","adminArea5":"Baltimore","adminArea5Type":"City","adminArea4":"Baltimore City","adminArea4Type":"County","adminArea3":"MD","adminArea3Type":"State","adminArea1":"US","adminArea1Type":"Country","postalCode":"21206-2611","geocodeQualityCode":"P1AAA","geocodeQuality":"POINT","dragPoint":false,"sideOfStreet":"L","linkId":"r20987352|p187767371|n27933205","unknownInput":"","type":"s","latLng":{"lat":39.344837,"lng":-76.541976},"displayLatLng":{"lat":39.345006,"lng":-76.542166}}]},{"providedLocation":{"location":"1747 BELT ST, Baltimore MD"},"locations":[{"street":"1747 Belt St","adminArea6":"","adminArea6Type":"Neighborhood","adminArea5":"Baltimore","adminArea5Type":"City","adminArea4":"Baltimore City","adminArea4Type":"County","adminArea3":"MD","adminArea3Type":"State","adminArea1":"US","adminArea1Type":"Country","postalCode":"21230-4707","geocodeQualityCode":"P1AAA","geocodeQuality":"POINT","dragPoint":false,"sideOfStreet":"L","linkId":"r22908641|p187442411|n30505249","unknownInput":"","type":"s","latLng":{"lat":39.269885,"lng":-76.605655},"displayLatLng":{"lat":39.269896,"lng":-76.605457}}]},{"providedLocation":{"location":"1190 NORTHERN PKWY, Baltimore MD"},"locations":[{"street":"[1200 - 1398] Northern Pkwy","adminArea6":"","adminArea6Type":"Neighborhood","adminArea5":"Baltimore","adminArea5Type":"City","adminArea4":"Baltimore City","adminArea4Type":"County","adminArea3":"MD","adminArea3Type":"State","adminArea1":"US","adminArea1Type":"Country","postalCode":"21210","geocodeQualityCode":"B3AAA","geocodeQuality":"STREET","dragPoint":false,"sideOfStreet":"L","linkId":"rnr6475887|i27911016","unknownInput":"","type":"s","latLng":{"lat":39.360496,"lng":-76.647027},"displayLatLng":{"lat":39.360308,"lng":-76.646958}}]},{"providedLocation":{"location":"5523 BELAIR RD, Baltimore MD"},"locations":[{"street":"5523 Belair Rd","adminArea6":"","adminArea6Type":"Neighborhood","adminArea5":"Baltimore","adminArea5Type":"City","adminArea4":"Baltimore City","adminArea4Type":"County","adminArea3":"MD","adminArea3Type":"State","adminArea1":"US","adminArea1Type":"Country","postalCode":"21206-3615","geocodeQualityCode":"P1AAA","geocodeQuality":"POINT","dragPoint":false,"sideOfStreet":"R","linkId":"r23152360|p190929175|n30827900","unknownInput":"","type":"s","latLng":{"lat":39.340133,"lng":-76.548674},"displayLatLng":{"lat":39.340029,"lng":-76.548551}}]},{"providedLocation":{"location":"1801 NORTH AVE, Baltimore MD"},"locations":[{"street":"[1301 - 1399] North Ave","adminArea6":"","adminArea6Type":"Neighborhood","adminArea5":"Halethorpe","adminArea5Type":"City","adminArea4":"Baltimore","adminArea4Type":"County","adminArea3":"MD","adminArea3Type":"State","adminArea1":"US","adminArea1Type":"Country","postalCode":"21227-2431","geocodeQualityCode":"B3AAA","geocodeQuality":"STREET","dragPoint":false,"sideOfStreet":"R","linkId":"rnr6464425|i30528360","unknownInput":"","type":"s","latLng":{"lat":39.251465,"lng":-76.69275},"displayLatLng":{"lat":39.25128,"lng":-76.692825}}]},{"providedLocation":{"location":"734 BROADWAY, Baltimore MD"},"locations":[{"street":"734 S Broadway","adminArea6":"","adminArea6Type":"Neighborhood","adminArea5":"Baltimore","adminArea5Type":"City","adminArea4":"Baltimore City","adminArea4Type":"County","adminArea3":"MD","adminArea3Type":"State","adminArea1":"US","adminArea1Type":"Country","postalCode":"21231-3406","geocodeQualityCode":"P1BAA","geocodeQuality":"POINT","dragPoint":false,"sideOfStreet":"R","linkId":"r22997487|p187245429|n30612088","unknownInput":"","type":"s","latLng":{"lat":39.282618,"lng":-76.593474},"displayLatLng":{"lat":39.282623,"lng":-76.593679}}]},{"providedLocation":{"location":"3105 ST PAUL ST, Baltimore MD"},"locations":[{"street":"3105 Saint Paul St","adminArea6":"","adminArea6Type":"Neighborhood","adminArea5":"Baltimore","adminArea5Type":"City","adminArea4":"Baltimore City","adminArea4Type":"County","adminArea3":"MD","adminArea3Type":"State","adminArea1":"US","adminArea1Type":"Country","postalCode":"21218-3841","geocodeQualityCode":"P1AAA","geocodeQuality":"POINT","dragPoint":false,"sideOfStreet":"R","linkId":"r23822969|p189781134|n31812552","unknownInput":"","type":"s","latLng":{"lat":39.326037,"lng":-76.615831},"displayLatLng":{"lat":39.326046,"lng":-76.615686}}]},{"providedLocation":{"location":"5625 O DONNELL ST, Baltimore MD"},"locations":[{"street":"5625 O'Donnell St","adminArea6":"","adminArea6Type":"Neighborhood","adminArea5":"Baltimore","adminArea5Type":"City","adminArea4":"Baltimore City","adminArea4Type":"County","adminArea3":"MD","adminArea3Type":"State","adminArea1":"US","adminArea1Type":"Country","postalCode":"21224-4630","geocodeQualityCode":"P1AAA","geocodeQuality":"POINT","dragPoint":false,"sideOfStreet":"R","linkId":"r23886863|p185993740|n31847779","unknownInput":"","type":"s","latLng":{"lat":39.28128,"lng":-76.547405},"displayLatLng":{"lat":39.281135,"lng":-76.547398}}]},{"providedLocation":{"location":"300 BALTIMORE ST, Baltimore MD"},"locations":[{"street":"[3600 - 3714] Baltimore St","adminArea6":"","adminArea6Type":"Neighborhood","adminArea5":"Halethorpe","adminArea5Type":"City","adminArea4":"Baltimore","adminArea4Type":"County","adminArea3":"MD","adminArea3Type":"State","adminArea1":"US","adminArea1Type":"Country","postalCode":"21227-2214","geocodeQualityCode":"B3AAA","geocodeQuality":"STREET","dragPoint":false,"sideOfStreet":"R","linkId":"rnr795576|i27319618","unknownInput":"","type":"s","latLng":{"lat":39.24223,"lng":-76.63103},"displayLatLng":{"lat":39.242188,"lng":-76.631226}}]},{"providedLocation":{"location":"5713 HARFORD RD, Baltimore MD"},"locations":[{"street":"5713 Harford Rd","adminArea6":"","adminArea6Type":"Neighborhood","adminArea5":"Baltimore","adminArea5Type":"City","adminArea4":"Baltimore City","adminArea4Type":"County","adminArea3":"MD","adminArea3Type":"State","adminArea1":"US","adminArea1Type":"Country","postalCode":"21214-2234","geocodeQualityCode":"P1AAA","geocodeQuality":"POINT","dragPoint":false,"sideOfStreet":"R","linkId":"r23000433|p184949039|n30632236","unknownInput":"","type":"s","latLng":{"lat":39.354633,"lng":-76.559431},"displayLatLng":{"lat":39.354525,"lng":-76.559226}}]},{"providedLocation":{"location":"301 LIGHT ST, Baltimore MD"},"locations":[{"street":"301 Light St","adminArea6":"","adminArea6Type":"Neighborhood","adminArea5":"Baltimore","adminArea5Type":"City","adminArea4":"Baltimore City","adminArea4Type":"County","adminArea3":"MD","adminArea3Type":"State","adminArea1":"US","adminArea1Type":"Country","postalCode":"21202-1000","geocodeQualityCode":"P1AAA","geocodeQuality":"POINT","dragPoint":false,"sideOfStreet":"R","linkId":"r20849954|p190951054|n27772295","unknownInput":"","type":"s","latLng":{"lat":39.285066,"lng":-76.613129},"displayLatLng":{"lat":39.285071,"lng":-76.612889}}]},{"providedLocation":{"location":"300 OLDHAM ST, Baltimore MD"},"locations":[{"street":"300 Oldham St","adminArea6":"","adminArea6Type":"Neighborhood","adminArea5":"Baltimore","adminArea5Type":"City","adminArea4":"Baltimore City","adminArea4Type":"County","adminArea3":"MD","adminArea3Type":"State","adminArea1":"US","adminArea1Type":"Country","postalCode":"21224-2638","geocodeQualityCode":"P1AAA","geocodeQuality":"POINT","dragPoint":false,"sideOfStreet":"R","linkId":"r23299647|p185829902|n31108117","unknownInput":"","type":"s","latLng":{"lat":39.288982,"lng":-76.55594},"displayLatLng":{"lat":39.288965,"lng":-76.55614}}]},{"providedLocation":{"location":"1000 LOMBARD ST, Baltimore MD"},"locations":[{"street":"1000 E Lombard St","adminArea6":"","adminArea6Type":"Neighborhood","adminArea5":"Baltimore","adminArea5Type":"City","adminArea4":"Baltimore City","adminArea4Type":"County","adminArea3":"MD","adminArea3Type":"State","adminArea1":"US","adminArea1Type":"Country","postalCode":"21202-4506","geocodeQualityCode":"P1BAA","geocodeQuality":"POINT","dragPoint":false,"sideOfStreet":"L","linkId":"r20851898|p187754274|n27759583","unknownInput":"","type":"s","latLng":{"lat":39.289261,"lng":-76.602227},"displayLatLng":{"lat":39.28942,"lng":-76.602328}}]},{"providedLocation":{"location":"6701 HOLABIRD AVE, Baltimore MD"},"locations":[{"street":"6701 Holabird Ave","adminArea6":"","adminArea6Type":"Neighborhood","adminArea5":"Dundalk","adminArea5Type":"City","adminArea4":"Baltimore","adminArea4Type":"County","adminArea3":"MD","adminArea3Type":"State","adminArea1":"US","adminArea1Type":"Country","postalCode":"21222-1024","geocodeQualityCode":"P1AAA","geocodeQuality":"POINT","dragPoint":false,"sideOfStreet":"R","linkId":"r21123855|p196292637|n28118694","unknownInput":"","type":"s","latLng":{"lat":39.272548,"lng":-76.530423},"displayLatLng":{"lat":39.272413,"lng":-76.530457}}]},{"providedLocation":{"location":"1741 LIGHT ST, Baltimore MD"},"locations":[{"street":"1741 Light St","adminArea6":"","adminArea6Type":"Neighborhood","adminArea5":"Baltimore","adminArea5Type":"City","adminArea4":"Baltimore City","adminArea4Type":"County","adminArea3":"MD","adminArea3Type":"State","adminArea1":"US","adminArea1Type":"Country","postalCode":"21230-4930","geocodeQualityCode":"P1AAA","geocodeQuality":"POINT","dragPoint":false,"sideOfStreet":"L","linkId":"r20823345|p187983240|n27712248","unknownInput":"","type":"s","latLng":{"lat":39.269672,"lng":-76.611715},"displayLatLng":{"lat":39.269658,"lng":-76.611573}}]},{"providedLocation":{"location":"205 MADISON ST, Baltimore MD"},"locations":[{"street":"205 W Madison St","adminArea6":"","adminArea6Type":"Neighborhood","adminArea5":"Baltimore","adminArea5Type":"City","adminArea4":"Baltimore City","adminArea4Type":"County","adminArea3":"MD","adminArea3Type":"State","adminArea1":"US","adminArea1Type":"Country","postalCode":"21201-4612","geocodeQualityCode":"P1BAA","geocodeQuality":"POINT","dragPoint":false,"sideOfStreet":"L","linkId":"r21043671|p185904288|n27996837","unknownInput":"","type":"s","latLng":{"lat":39.298461,"lng":-76.618934},"displayLatLng":{"lat":39.298297,"lng":-76.618908}}]},{"providedLocation":{"location":"641 MONTFORD AVE, Baltimore MD"},"locations":[{"street":"641 S Montford Ave","adminArea6":"","adminArea6Type":"Neighborhood","adminArea5":"Baltimore","adminArea5Type":"City","adminArea4":"Baltimore City","adminArea4Type":"County","adminArea3":"MD","adminArea3Type":"State","adminArea1":"US","adminArea1Type":"Country","postalCode":"21224-3641","geocodeQualityCode":"P1BAA","geocodeQuality":"POINT","dragPoint":false,"sideOfStreet":"L","linkId":"r20905561|p188695294|n27834959","unknownInput":"","type":"s","latLng":{"lat":39.284091,"lng":-76.582778},"displayLatLng":{"lat":39.284096,"lng":-76.582557}}]},{"providedLocation":{"location":"1712 ALICEANNA ST, Baltimore MD"},"locations":[{"street":"1712 Aliceanna St","adminArea6":"","adminArea6Type":"Neighborhood","adminArea5":"Baltimore","adminArea5Type":"City","adminArea4":"Baltimore City","adminArea4Type":"County","adminArea3":"MD","adminArea3Type":"State","adminArea1":"US","adminArea1Type":"Country","postalCode":"21231-2901","geocodeQualityCode":"P1AAA","geocodeQuality":"POINT","dragPoint":false,"sideOfStreet":"L","linkId":"r20997909|p186386283|n27931274","unknownInput":"","type":"s","latLng":{"lat":39.283571,"lng":-76.592563},"displayLatLng":{"lat":39.283746,"lng":-76.592576}}]},{"providedLocation":{"location":"4700 MT HOPE DR, Baltimore MD"},"locations":[{"street":"4700 Mount Hope Dr","adminArea6":"","adminArea6Type":"Neighborhood","adminArea5":"Baltimore","adminArea5Type":"City","adminArea4":"Baltimore City","adminArea4Type":"County","adminArea3":"MD","adminArea3Type":"State","adminArea1":"US","adminArea1Type":"Country","postalCode":"21215-3200","geocodeQualityCode":"P1AAA","geocodeQuality":"POINT","dragPoint":false,"sideOfStreet":"R","linkId":"r23315127|p185614060|n31109738","unknownInput":"","type":"s","latLng":{"lat":39.347229,"lng":-76.706097},"displayLatLng":{"lat":39.34738,"lng":-76.706223}}]},{"providedLocation":{"location":"3725 MALDEN AVE, Baltimore MD"},"locations":[{"street":"3725 Malden Ave","adminArea6":"","adminArea6Type":"Neighborhood","adminArea5":"Baltimore","adminArea5Type":"City","adminArea4":"Baltimore City","adminArea4Type":"County","adminArea3":"MD","adminArea3Type":"State","adminArea1":"US","adminArea1Type":"Country","postalCode":"21211-1322","geocodeQualityCode":"P1AAA","geocodeQuality":"POINT","dragPoint":false,"sideOfStreet":"R","linkId":"r20926955|p202605710|n27855297","unknownInput":"","type":"s","latLng":{"lat":39.334561,"lng":-76.650787},"displayLatLng":{"lat":39.334628,"lng":-76.651065}}]},{"providedLocation":{"location":"3915 HANOVER ST, Baltimore MD"},"locations":[{"street":"3915 S Hanover St","adminArea6":"","adminArea6Type":"Neighborhood","adminArea5":"Brooklyn","adminArea5Type":"City","adminArea4":"Baltimore City","adminArea4Type":"County","adminArea3":"MD","adminArea3Type":"State","adminArea1":"US","adminArea1Type":"Country","postalCode":"21225-1710","geocodeQualityCode":"P1BAA","geocodeQuality":"POINT","dragPoint":false,"sideOfStreet":"L","linkId":"r20937480|p185922403|n27867076","unknownInput":"","type":"s","latLng":{"lat":39.235001,"lng":-76.611319},"displayLatLng":{"lat":39.234932,"lng":-76.611112}}]},{"providedLocation":{"location":"704 BROADWAY, Baltimore MD"},"locations":[{"street":"704 S Broadway","adminArea6":"","adminArea6Type":"Neighborhood","adminArea5":"Baltimore","adminArea5Type":"City","adminArea4":"Baltimore City","adminArea4Type":"County","adminArea3":"MD","adminArea3Type":"State","adminArea1":"US","adminArea1Type":"Country","postalCode":"21231-3406","geocodeQualityCode":"P1BAA","geocodeQuality":"POINT","dragPoint":false,"sideOfStreet":"R","linkId":"r22997487|p185989092|n30612088","unknownInput":"","type":"s","latLng":{"lat":39.283286,"lng":-76.593493},"displayLatLng":{"lat":39.283284,"lng":-76.593696}}]},{"providedLocation":{"location":"2501 FLEET ST, Baltimore MD"},"locations":[{"street":"2501 Fleet St","adminArea6":"","adminArea6Type":"Neighborhood","adminArea5":"Baltimore","adminArea5Type":"City","adminArea4":"Baltimore City","adminArea4Type":"County","adminArea3":"MD","adminArea3Type":"State","adminArea1":"US","adminArea1Type":"Country","postalCode":"21224-3742","geocodeQualityCode":"P1AAA","geocodeQuality":"POINT","dragPoint":false,"sideOfStreet":"R","linkId":"r20972947|p189160547|n27909435","unknownInput":"","type":"s","latLng":{"lat":39.285057,"lng":-76.581204},"displayLatLng":{"lat":39.284871,"lng":-76.581197}}]},{"providedLocation":{"location":"5621 BELAIR RD, Baltimore MD"},"locations":[{"street":"5621 Belair Rd","adminArea6":"","adminArea6Type":"Neighborhood","adminArea5":"Baltimore","adminArea5Type":"City","adminArea4":"Baltimore City","adminArea4Type":"County","adminArea3":"MD","adminArea3Type":"State","adminArea1":"US","adminArea1Type":"Country","postalCode":"21206-3619","geocodeQualityCode":"L1AAA","geocodeQuality":"ADDRESS","dragPoint":false,"sideOfStreet":"R","linkId":"rnr901492|i27542698","unknownInput":"","type":"s","latLng":{"lat":39.34104,"lng":-76.547355},"displayLatLng":{"lat":39.340876,"lng":-76.547241}}]},{"providedLocation":{"location":"1120 FORT AVE, Baltimore MD"},"locations":[{"street":"1120 E Fort Ave","adminArea6":"","adminArea6Type":"Neighborhood","adminArea5":"Baltimore","adminArea5Type":"City","adminArea4":"Baltimore City","adminArea4Type":"County","adminArea3":"MD","adminArea3Type":"State","adminArea1":"US","adminArea1Type":"Country","postalCode":"21230-5103","geocodeQualityCode":"P1BAA","geocodeQuality":"POINT","dragPoint":false,"sideOfStreet":"L","linkId":"r22937218|p188851219|n30550115","unknownInput":"","type":"s","latLng":{"lat":39.270582,"lng":-76.598274},"displayLatLng":{"lat":39.270767,"lng":-76.598173}}]},{"providedLocation":{"location":"415 COLD SPRING LN, Baltimore MD"},"locations":[{"street":"[601 - 699] Spring Ln, COLD","adminArea6":"","adminArea6Type":"Neighborhood","adminArea5":"Essex","adminArea5Type":"City","adminArea4":"Baltimore","adminArea4Type":"County","adminArea3":"MD","adminArea3Type":"State","adminArea1":"US","adminArea1Type":"Country","postalCode":"21221-6032","geocodeQualityCode":"B3AAA","geocodeQuality":"STREET","dragPoint":false,"sideOfStreet":"L","linkId":"rnr8441122|i31038057","unknownInput":"","type":"s","latLng":{"lat":39.286186,"lng":-76.442434},"displayLatLng":{"lat":39.286087,"lng":-76.442261}}]},{"providedLocation":{"location":"3811 CANTERBURY RD, Baltimore MD"},"locations":[{"street":"3811 Canterbury Rd","adminArea6":"","adminArea6Type":"Neighborhood","adminArea5":"Baltimore","adminArea5Type":"City","adminArea4":"Baltimore City","adminArea4Type":"County","adminArea3":"MD","adminArea3Type":"State","adminArea1":"US","adminArea1Type":"Country","postalCode":"21218-2303","geocodeQualityCode":"P1AAA","geocodeQuality":"POINT","dragPoint":false,"sideOfStreet":"R","linkId":"r21458362|p186240683|n28583492","unknownInput":"","type":"s","latLng":{"lat":39.335365,"lng":-76.620453},"displayLatLng":{"lat":39.335374,"lng":-76.620185}}]},{"providedLocation":{"location":"1810 CHERRY HILL RD, Baltimore MD"},"locations":[{"street":"1810 Cherry Hill Rd","adminArea6":"","adminArea6Type":"Neighborhood","adminArea5":"Baltimore","adminArea5Type":"City","adminArea4":"Baltimore City","adminArea4Type":"County","adminArea3":"MD","adminArea3Type":"State","adminArea1":"US","adminArea1Type":"Country","postalCode":"21230-3522","geocodeQualityCode":"P1AAA","geocodeQuality":"POINT","dragPoint":false,"sideOfStreet":"R","linkId":"r22639429|p186939152|n30166592","unknownInput":"","type":"s","latLng":{"lat":39.25735,"lng":-76.632941},"displayLatLng":{"lat":39.257278,"lng":-76.632748}}]},{"providedLocation":{"location":"901 PRATT ST, Baltimore MD"},"locations":[{"street":"901 W Pratt St","adminArea6":"","adminArea6Type":"Neighborhood","adminArea5":"Baltimore","adminArea5Type":"City","adminArea4":"Baltimore City","adminArea4Type":"County","adminArea3":"MD","adminArea3Type":"State","adminArea1":"US","adminArea1Type":"Country","postalCode":"21223-2644","geocodeQualityCode":"P1BAA","geocodeQuality":"POINT","dragPoint":false,"sideOfStreet":"L","linkId":"r21044061|p205115033|n28010984","unknownInput":"","type":"s","latLng":{"lat":39.285768,"lng":-76.632841},"displayLatLng":{"lat":39.285655,"lng":-76.632849}}]},{"providedLocation":{"location":"1502 MADISON AVE, Baltimore MD"},"locations":[{"street":"1502 Madison Ave","adminArea6":"","adminArea6Type":"Neighborhood","adminArea5":"Baltimore","adminArea5Type":"City","adminArea4":"Baltimore City","adminArea4Type":"County","adminArea3":"MD","adminArea3Type":"State","adminArea1":"US","adminArea1Type":"Country","postalCode":"21217-3645","geocodeQualityCode":"P1AAA","geocodeQuality":"POINT","dragPoint":false,"sideOfStreet":"L","linkId":"r20807459|p188479488|n27703162","unknownInput":"","type":"s","latLng":{"lat":39.304886,"lng":-76.629167},"displayLatLng":{"lat":39.304757,"lng":-76.629338}}]},{"providedLocation":{"location":"1527 CHERRY ST, Baltimore MD"},"locations":[{"street":"1527 Cherry St","adminArea6":"","adminArea6Type":"Neighborhood","adminArea5":"Curtis Bay","adminArea5Type":"City","adminArea4":"Anne Arundel","adminArea4Type":"County","adminArea3":"MD","adminArea3Type":"State","adminArea1":"US","adminArea1Type":"Country","postalCode":"21226-1437","geocodeQualityCode":"P1AAA","geocodeQuality":"POINT","dragPoint":false,"sideOfStreet":"R","linkId":"r23011985|p187785611|n30637477","unknownInput":"","type":"s","latLng":{"lat":39.222164,"lng":-76.588694},"displayLatLng":{"lat":39.222024,"lng":-76.588685}}]},{"providedLocation":{"location":"506 FORT AVE, Baltimore MD"},"locations":[{"street":"506 E Fort Ave","adminArea6":"","adminArea6Type":"Neighborhood","adminArea5":"Baltimore","adminArea5Type":"City","adminArea4":"Baltimore City","adminArea4Type":"County","adminArea3":"MD","adminArea3Type":"State","adminArea1":"US","adminArea1Type":"Country","postalCode":"21230-4751","geocodeQualityCode":"P1BAA","geocodeQuality":"POINT","dragPoint":false,"sideOfStreet":"L","linkId":"r21148568|p186084640|n28198172","unknownInput":"","type":"s","latLng":{"lat":39.272931,"lng":-76.606362},"displayLatLng":{"lat":39.273109,"lng":-76.60638}}]},{"providedLocation":{"location":"400 EATON ST, Baltimore MD"},"locations":[{"street":"400 S Eaton St","adminArea6":"","adminArea6Type":"Neighborhood","adminArea5":"Baltimore","adminArea5Type":"City","adminArea4":"Baltimore City","adminArea4Type":"County","adminArea3":"MD","adminArea3Type":"State","adminArea1":"US","adminArea1Type":"Country","postalCode":"21224-2603","geocodeQualityCode":"P1BAA","geocodeQuality":"POINT","dragPoint":false,"sideOfStreet":"R","linkId":"r22672117|p188603774|n30212829","unknownInput":"","type":"s","latLng":{"lat":39.287612,"lng":-76.565343},"displayLatLng":{"lat":39.287597,"lng":-76.565555}}]},{"providedLocation":{"location":"7135 HARFORD RD, Baltimore MD"},"locations":[{"street":"7135 Harford Rd","adminArea6":"","adminArea6Type":"Neighborhood","adminArea5":"Parkville","adminArea5Type":"City","adminArea4":"Baltimore","adminArea4Type":"County","adminArea3":"MD","adminArea3Type":"State","adminArea1":"US","adminArea1Type":"Country","postalCode":"21234-7705","geocodeQualityCode":"P1AAA","geocodeQuality":"POINT","dragPoint":false,"sideOfStreet":"R","linkId":"r20891232|p185728992|n27810882","unknownInput":"","type":"s","latLng":{"lat":39.368044,"lng":-76.547824},"displayLatLng":{"lat":39.367927,"lng":-76.547644}}]},{"providedLocation":{"location":"3600 KESWICK RD, Baltimore MD"},"locations":[{"street":"3600 Keswick Rd","adminArea6":"","adminArea6Type":"Neighborhood","adminArea5":"Baltimore","adminArea5Type":"City","adminArea4":"Baltimore City","adminArea4Type":"County","adminArea3":"MD","adminArea3Type":"State","adminArea1":"US","adminArea1Type":"Country","postalCode":"21211-2532","geocodeQualityCode":"P1AAA","geocodeQuality":"POINT","dragPoint":false,"sideOfStreet":"L","linkId":"r20841306|p189553449|n27745424","unknownInput":"","type":"s","latLng":{"lat":39.331422,"lng":-76.628037},"displayLatLng":{"lat":39.33141,"lng":-76.628232}}]},{"providedLocation":{"location":"10 MARKET PLACE, Baltimore MD"},"locations":[{"street":"10 Market Pl","adminArea6":"","adminArea6Type":"Neighborhood","adminArea5":"Dundalk","adminArea5Type":"City","adminArea4":"Baltimore","adminArea4Type":"County","adminArea3":"MD","adminArea3Type":"State","adminArea1":"US","adminArea1Type":"Country","postalCode":"21222-4309","geocodeQualityCode":"L1AAA","geocodeQuality":"ADDRESS","dragPoint":false,"sideOfStreet":"L","linkId":"rnr5710039|i30585063","unknownInput":"","type":"s","latLng":{"lat":39.258477,"lng":-76.524204},"displayLatLng":{"lat":39.258666,"lng":-76.52427}}]},{"providedLocation":{"location":"5805 O Donnell ST, Baltimore MD"},"locations":[{"street":"5805 O'Donnell St","adminArea6":"","adminArea6Type":"Neighborhood","adminArea5":"Baltimore","adminArea5Type":"City","adminArea4":"Baltimore City","adminArea4Type":"County","adminArea3":"MD","adminArea3Type":"State","adminArea1":"US","adminArea1Type":"Country","postalCode":"21224-4633","geocodeQualityCode":"P1AAA","geocodeQuality":"POINT","dragPoint":false,"sideOfStreet":"R","linkId":"r20928093|p188582633|n27854131","unknownInput":"","type":"s","latLng":{"lat":39.281351,"lng":-76.545553},"displayLatLng":{"lat":39.281242,"lng":-76.545546}}]},{"providedLocation":{"location":"601 CLINTON ST, Baltimore MD"},"locations":[{"street":"601 S Clinton St","adminArea6":"","adminArea6Type":"Neighborhood","adminArea5":"Baltimore","adminArea5Type":"City","adminArea4":"Baltimore City","adminArea4Type":"County","adminArea3":"MD","adminArea3Type":"State","adminArea1":"US","adminArea1Type":"Country","postalCode":"21224-4008","geocodeQualityCode":"P1BAA","geocodeQuality":"POINT","dragPoint":false,"sideOfStreet":"L","linkId":"r23106257|p271746598|n30761896","unknownInput":"","type":"s","latLng":{"lat":39.285362,"lng":-76.569888},"displayLatLng":{"lat":39.285371,"lng":-76.569672}}]},{"providedLocation":{"location":"631 LEXINGTON ST, Baltimore MD"},"locations":[{"street":"631 W Lexington St","adminArea6":"","adminArea6Type":"Neighborhood","adminArea5":"Baltimore","adminArea5Type":"City","adminArea4":"Baltimore City","adminArea4Type":"County","adminArea3":"MD","adminArea3Type":"State","adminArea1":"US","adminArea1Type":"Country","postalCode":"21201-1546","geocodeQualityCode":"L1BAA","geocodeQuality":"ADDRESS","dragPoint":false,"sideOfStreet":"L","linkId":"rnr9835109|i27202044","unknownInput":"","type":"s","latLng":{"lat":39.291334,"lng":-76.625403},"displayLatLng":{"lat":39.291134,"lng":-76.625393}}]},{"providedLocation":{"location":"6798 REISTERSTOWN RD, Baltimore MD"},"locations":[{"street":"6798 Reisterstown Rd","adminArea6":"","adminArea6Type":"Neighborhood","adminArea5":"Baltimore","adminArea5Type":"City","adminArea4":"Baltimore City","adminArea4Type":"County","adminArea3":"MD","adminArea3Type":"State","adminArea1":"US","adminArea1Type":"Country","postalCode":"21215-2306","geocodeQualityCode":"P1AAA","geocodeQuality":"POINT","dragPoint":false,"sideOfStreet":"L","linkId":"r23138445|p185610425|n30810687","unknownInput":"","type":"s","latLng":{"lat":39.359423,"lng":-76.706785},"displayLatLng":{"lat":39.359028,"lng":-76.707088}}]},{"providedLocation":{"location":"300 st paul pl, Baltimore MD"},"locations":[{"street":"300 Saint Paul Pl","adminArea6":"","adminArea6Type":"Neighborhood","adminArea5":"Baltimore","adminArea5Type":"City","adminArea4":"Baltimore City","adminArea4Type":"County","adminArea3":"MD","adminArea3Type":"State","adminArea1":"US","adminArea1Type":"Country","postalCode":"21202-2103","geocodeQualityCode":"P1AAA","geocodeQuality":"POINT","dragPoint":false,"sideOfStreet":"L","linkId":"r22930663|p188954342|n30533222","unknownInput":"","type":"s","latLng":{"lat":39.292726,"lng":-76.614146},"displayLatLng":{"lat":39.292713,"lng":-76.614329}}]},{"providedLocation":{"location":"1101 RUSSELL ST, Baltimore MD"},"locations":[{"street":"1101 Russell St","adminArea6":"","adminArea6Type":"Neighborhood","adminArea5":"Baltimore","adminArea5Type":"City","adminArea4":"Baltimore City","adminArea4Type":"County","adminArea3":"MD","adminArea3Type":"State","adminArea1":"US","adminArea1Type":"Country","postalCode":"21230","geocodeQualityCode":"L1AAA","geocodeQuality":"ADDRESS","dragPoint":false,"sideOfStreet":"L","linkId":"rnr7803271|i27489247","unknownInput":"","type":"s","latLng":{"lat":39.278388,"lng":-76.624397},"displayLatLng":{"lat":39.278303,"lng":-76.624216}}]},{"providedLocation":{"location":"1101 RUSSELL ST, Baltimore MD"},"locations":[{"street":"1101 Russell St","adminArea6":"","adminArea6Type":"Neighborhood","adminArea5":"Baltimore","adminArea5Type":"City","adminArea4":"Baltimore City","adminArea4Type":"County","adminArea3":"MD","adminArea3Type":"State","adminArea1":"US","adminArea1Type":"Country","postalCode":"21230","geocodeQualityCode":"L1AAA","geocodeQuality":"ADDRESS","dragPoint":false,"sideOfStreet":"L","linkId":"rnr7803271|i27489247","unknownInput":"","type":"s","latLng":{"lat":39.278388,"lng":-76.624397},"displayLatLng":{"lat":39.278303,"lng":-76.624216}}]},{"providedLocation":{"location":"1101 RUSSELL ST, Baltimore MD"},"locations":[{"street":"1101 Russell St","adminArea6":"","adminArea6Type":"Neighborhood","adminArea5":"Baltimore","adminArea5Type":"City","adminArea4":"Baltimore City","adminArea4Type":"County","adminArea3":"MD","adminArea3Type":"State","adminArea1":"US","adminArea1Type":"Country","postalCode":"21230","geocodeQualityCode":"L1AAA","geocodeQuality":"ADDRESS","dragPoint":false,"sideOfStreet":"L","linkId":"rnr7803271|i27489247","unknownInput":"","type":"s","latLng":{"lat":39.278388,"lng":-76.624397},"displayLatLng":{"lat":39.278303,"lng":-76.624216}}]},{"providedLocation":{"location":"1101 RUSSELL ST, Baltimore MD"},"locations":[{"street":"1101 Russell St","adminArea6":"","adminArea6Type":"Neighborhood","adminArea5":"Baltimore","adminArea5Type":"City","adminArea4":"Baltimore City","adminArea4Type":"County","adminArea3":"MD","adminArea3Type":"State","adminArea1":"US","adminArea1Type":"Country","postalCode":"21230","geocodeQualityCode":"L1AAA","geocodeQuality":"ADDRESS","dragPoint":false,"sideOfStreet":"L","linkId":"rnr7803271|i27489247","unknownInput":"","type":"s","latLng":{"lat":39.278388,"lng":-76.624397},"displayLatLng":{"lat":39.278303,"lng":-76.624216}}]},{"providedLocation":{"location":"1101 RUSSELL ST, Baltimore MD"},"locations":[{"street":"1101 Russell St","adminArea6":"","adminArea6Type":"Neighborhood","adminArea5":"Baltimore","adminArea5Type":"City","adminArea4":"Baltimore City","adminArea4Type":"County","adminArea3":"MD","adminArea3Type":"State","adminArea1":"US","adminArea1Type":"Country","postalCode":"21230","geocodeQualityCode":"L1AAA","geocodeQuality":"ADDRESS","dragPoint":false,"sideOfStreet":"L","linkId":"rnr7803271|i27489247","unknownInput":"","type":"s","latLng":{"lat":39.278388,"lng":-76.624397},"displayLatLng":{"lat":39.278303,"lng":-76.624216}}]},{"providedLocation":{"location":"1101 RUSSELL ST, Baltimore MD"},"locations":[{"street":"1101 Russell St","adminArea6":"","adminArea6Type":"Neighborhood","adminArea5":"Baltimore","adminArea5Type":"City","adminArea4":"Baltimore City","adminArea4Type":"County","adminArea3":"MD","adminArea3Type":"State","adminArea1":"US","adminArea1Type":"Country","postalCode":"21230","geocodeQualityCode":"L1AAA","geocodeQuality":"ADDRESS","dragPoint":false,"sideOfStreet":"L","linkId":"rnr7803271|i27489247","unknownInput":"","type":"s","latLng":{"lat":39.278388,"lng":-76.624397},"displayLatLng":{"lat":39.278303,"lng":-76.624216}}]},{"providedLocation":{"location":"1101 RUSSELL ST, Baltimore MD"},"locations":[{"street":"1101 Russell St","adminArea6":"","adminArea6Type":"Neighborhood","adminArea5":"Baltimore","adminArea5Type":"City","adminArea4":"Baltimore City","adminArea4Type":"County","adminArea3":"MD","adminArea3Type":"State","adminArea1":"US","adminArea1Type":"Country","postalCode":"21230","geocodeQualityCode":"L1AAA","geocodeQuality":"ADDRESS","dragPoint":false,"sideOfStreet":"L","linkId":"rnr7803271|i27489247","unknownInput":"","type":"s","latLng":{"lat":39.278388,"lng":-76.624397},"displayLatLng":{"lat":39.278303,"lng":-76.624216}}]},{"providedLocation":{"location":"1101 RUSSELL ST, Baltimore MD"},"locations":[{"street":"1101 Russell St","adminArea6":"","adminArea6Type":"Neighborhood","adminArea5":"Baltimore","adminArea5Type":"City","adminArea4":"Baltimore City","adminArea4Type":"County","adminArea3":"MD","adminArea3Type":"State","adminArea1":"US","adminArea1Type":"Country","postalCode":"21230","geocodeQualityCode":"L1AAA","geocodeQuality":"ADDRESS","dragPoint":false,"sideOfStreet":"L","linkId":"rnr7803271|i27489247","unknownInput":"","type":"s","latLng":{"lat":39.278388,"lng":-76.624397},"displayLatLng":{"lat":39.278303,"lng":-76.624216}}]},{"providedLocation":{"location":"1101 RUSSELL ST, Baltimore MD"},"locations":[{"street":"1101 Russell St","adminArea6":"","adminArea6Type":"Neighborhood","adminArea5":"Baltimore","adminArea5Type":"City","adminArea4":"Baltimore City","adminArea4Type":"County","adminArea3":"MD","adminArea3Type":"State","adminArea1":"US","adminArea1Type":"Country","postalCode":"21230","geocodeQualityCode":"L1AAA","geocodeQuality":"ADDRESS","dragPoint":false,"sideOfStreet":"L","linkId":"rnr7803271|i27489247","unknownInput":"","type":"s","latLng":{"lat":39.278388,"lng":-76.624397},"displayLatLng":{"lat":39.278303,"lng":-76.624216}}]},{"providedLocation":{"location":"Hopkins Pl, Baltimore MD"},"locations":[{"street":"[1 - 199] Hopkins Pl","adminArea6":"","adminArea6Type":"Neighborhood","adminArea5":"Baltimore","adminArea5Type":"City","adminArea4":"Baltimore City","adminArea4Type":"County","adminArea3":"MD","adminArea3Type":"State","adminArea1":"US","adminArea1Type":"Country","postalCode":"21201","geocodeQualityCode":"B1AAA","geocodeQuality":"STREET","dragPoint":false,"sideOfStreet":"M","linkId":"rnr4765145","unknownInput":"","type":"s","latLng":{"lat":39.288171,"lng":-76.617724},"displayLatLng":{"lat":39.288171,"lng":-76.617724}}]},{"providedLocation":{"location":"2 CHASE ST, Baltimore MD"},"locations":[{"street":"2 W Chase St","adminArea6":"","adminArea6Type":"Neighborhood","adminArea5":"Baltimore","adminArea5Type":"City","adminArea4":"Baltimore City","adminArea4Type":"County","adminArea3":"MD","adminArea3Type":"State","adminArea1":"US","adminArea1Type":"Country","postalCode":"21201-5405","geocodeQualityCode":"L1BAA","geocodeQuality":"ADDRESS","dragPoint":false,"sideOfStreet":"R","linkId":"rnr9548829|i31467366","unknownInput":"","type":"s","latLng":{"lat":39.302384,"lng":-76.615983},"displayLatLng":{"lat":39.302584,"lng":-76.615992}}]},{"providedLocation":{"location":"2426 PENNSYLVANIA, Baltimore MD"},"locations":[{"street":"2426 Pennsylvania Ave","adminArea6":"","adminArea6Type":"Neighborhood","adminArea5":"Baltimore","adminArea5Type":"City","adminArea4":"Baltimore City","adminArea4Type":"County","adminArea3":"MD","adminArea3Type":"State","adminArea1":"US","adminArea1Type":"Country","postalCode":"21217-1722","geocodeQualityCode":"P1BAA","geocodeQuality":"POINT","dragPoint":false,"sideOfStreet":"L","linkId":"r23935694|p187619916|n31926632","unknownInput":"","type":"s","latLng":{"lat":39.30988,"lng":-76.642311},"displayLatLng":{"lat":39.309765,"lng":-76.642482}}]},{"providedLocation":{"location":"129 BROADWAY, Baltimore MD"},"locations":[{"street":"129 S Broadway","adminArea6":"","adminArea6Type":"Neighborhood","adminArea5":"Baltimore","adminArea5Type":"City","adminArea4":"Baltimore City","adminArea4Type":"County","adminArea3":"MD","adminArea3Type":"State","adminArea1":"US","adminArea1Type":"Country","postalCode":"21231-1559","geocodeQualityCode":"P1BAA","geocodeQuality":"POINT","dragPoint":false,"sideOfStreet":"L","linkId":"r20875988|p186075216|n27783084","unknownInput":"","type":"s","latLng":{"lat":39.289461,"lng":-76.593641},"displayLatLng":{"lat":39.289473,"lng":-76.593415}}]},{"providedLocation":{"location":"25 BROADWAY, Baltimore MD"},"locations":[{"street":"25 S Broadway","adminArea6":"","adminArea6Type":"Neighborhood","adminArea5":"Baltimore","adminArea5Type":"City","adminArea4":"Baltimore City","adminArea4Type":"County","adminArea3":"MD","adminArea3Type":"State","adminArea1":"US","adminArea1Type":"Country","postalCode":"21231-1714","geocodeQualityCode":"P1BAA","geocodeQuality":"POINT","dragPoint":false,"sideOfStreet":"L","linkId":"r20987374|p187880616|n27952053","unknownInput":"","type":"s","latLng":{"lat":39.290495,"lng":-76.593692},"displayLatLng":{"lat":39.290503,"lng":-76.593465}}]},{"providedLocation":{"location":"629 BROADWAY, Baltimore MD"},"locations":[{"street":"629 S Broadway","adminArea6":"","adminArea6Type":"Neighborhood","adminArea5":"Baltimore","adminArea5Type":"City","adminArea4":"Baltimore City","adminArea4Type":"County","adminArea3":"MD","adminArea3Type":"State","adminArea1":"US","adminArea1Type":"Country","postalCode":"21231-2915","geocodeQualityCode":"P1BAA","geocodeQuality":"POINT","dragPoint":false,"sideOfStreet":"L","linkId":"r20754231|p186140484|n27650219","unknownInput":"","type":"s","latLng":{"lat":39.283822,"lng":-76.593237},"displayLatLng":{"lat":39.283832,"lng":-76.592972}}]},{"providedLocation":{"location":"916 36th st, Baltimore MD"},"locations":[{"street":"916 W 36th St","adminArea6":"","adminArea6Type":"Neighborhood","adminArea5":"Baltimore","adminArea5Type":"City","adminArea4":"Baltimore City","adminArea4Type":"County","adminArea3":"MD","adminArea3Type":"State","adminArea1":"US","adminArea1Type":"Country","postalCode":"21211-2483","geocodeQualityCode":"P1BAA","geocodeQuality":"POINT","dragPoint":false,"sideOfStreet":"R","linkId":"r20873578|p186295410|n27790081","unknownInput":"","type":"s","latLng":{"lat":39.331111,"lng":-76.632256},"displayLatLng":{"lat":39.331294,"lng":-76.632271}}]},{"providedLocation":{"location":"529 BELVEDERE AVE, Baltimore MD"},"locations":[{"street":"529 E Belvedere Ave","adminArea6":"","adminArea6Type":"Neighborhood","adminArea5":"Baltimore","adminArea5Type":"City","adminArea4":"Baltimore City","adminArea4Type":"County","adminArea3":"MD","adminArea3Type":"State","adminArea1":"US","adminArea1Type":"Country","postalCode":"21212-3745","geocodeQualityCode":"L1BAA","geocodeQuality":"ADDRESS","dragPoint":false,"sideOfStreet":"R","linkId":"rnr3545449|i27733739","unknownInput":"","type":"s","latLng":{"lat":39.364169,"lng":-76.608537},"displayLatLng":{"lat":39.363969,"lng":-76.60853}}]},{"providedLocation":{"location":"1 SOUTH ST, Baltimore MD"},"locations":[{"street":"1 South St","adminArea6":"","adminArea6Type":"Neighborhood","adminArea5":"Baltimore","adminArea5Type":"City","adminArea4":"Baltimore City","adminArea4Type":"County","adminArea3":"MD","adminArea3Type":"State","adminArea1":"US","adminArea1Type":"Country","postalCode":"21202-3201","geocodeQualityCode":"P1AAA","geocodeQuality":"POINT","dragPoint":false,"sideOfStreet":"L","linkId":"r23200032|p185891689|n30895455","unknownInput":"","type":"s","latLng":{"lat":39.289528,"lng":-76.610976},"displayLatLng":{"lat":39.289312,"lng":-76.610795}}]},{"providedLocation":{"location":"2400 BOSTON ST, Baltimore MD"},"locations":[{"street":"2400 Boston St","adminArea6":"","adminArea6Type":"Neighborhood","adminArea5":"Baltimore","adminArea5Type":"City","adminArea4":"Baltimore City","adminArea4Type":"County","adminArea3":"MD","adminArea3Type":"State","adminArea1":"US","adminArea1Type":"Country","postalCode":"21224","geocodeQualityCode":"P1AAA","geocodeQuality":"POINT","dragPoint":false,"sideOfStreet":"N","linkId":"a496f5d1-e979-477b-bfce-ac26dabf36eb","unknownInput":"","type":"s","latLng":{"lat":39.28199,"lng":-76.582629},"displayLatLng":{"lat":39.28199,"lng":-76.582629}}]},{"providedLocation":{"location":"1238 GREENMOUNT AVE, Baltimore MD"},"locations":[{"street":"1238 Greenmount Ave","adminArea6":"","adminArea6Type":"Neighborhood","adminArea5":"Baltimore","adminArea5Type":"City","adminArea4":"Baltimore City","adminArea4Type":"County","adminArea3":"MD","adminArea3Type":"State","adminArea1":"US","adminArea1Type":"Country","postalCode":"21202-3918","geocodeQualityCode":"P1AAA","geocodeQuality":"POINT","dragPoint":false,"sideOfStreet":"L","linkId":"r21011458|p187031809|n27948281","unknownInput":"","type":"s","latLng":{"lat":39.304749,"lng":-76.608167},"displayLatLng":{"lat":39.304694,"lng":-76.608386}}]},{"providedLocation":{"location":"4901 eastern ave, Baltimore MD"},"locations":[{"street":"4901 Eastern Ave","adminArea6":"","adminArea6Type":"Neighborhood","adminArea5":"Baltimore","adminArea5Type":"City","adminArea4":"Baltimore City","adminArea4Type":"County","adminArea3":"MD","adminArea3Type":"State","adminArea1":"US","adminArea1Type":"Country","postalCode":"21224-2701","geocodeQualityCode":"P1AAA","geocodeQuality":"POINT","dragPoint":false,"sideOfStreet":"R","linkId":"r23321823|p186439923|n31063329","unknownInput":"","type":"s","latLng":{"lat":39.287109,"lng":-76.554729},"displayLatLng":{"lat":39.286974,"lng":-76.554723}}]},{"providedLocation":{"location":"1501 bolton ST, Baltimore MD"},"locations":[{"street":"1501 Bolton St","adminArea6":"","adminArea6Type":"Neighborhood","adminArea5":"Baltimore","adminArea5Type":"City","adminArea4":"Baltimore City","adminArea4Type":"County","adminArea3":"MD","adminArea3Type":"State","adminArea1":"US","adminArea1Type":"Country","postalCode":"21217-4204","geocodeQualityCode":"P1AAA","geocodeQuality":"POINT","dragPoint":false,"sideOfStreet":"R","linkId":"r21191863|p187720594|n28229355","unknownInput":"","type":"s","latLng":{"lat":39.307014,"lng":-76.62609},"displayLatLng":{"lat":39.307151,"lng":-76.625914}}]},{"providedLocation":{"location":"2251 WILKENS AVE, Baltimore MD"},"locations":[{"street":"2251 Wilkens Ave","adminArea6":"","adminArea6Type":"Neighborhood","adminArea5":"Baltimore","adminArea5Type":"City","adminArea4":"Baltimore City","adminArea4Type":"County","adminArea3":"MD","adminArea3Type":"State","adminArea1":"US","adminArea1Type":"Country","postalCode":"21223-3328","geocodeQualityCode":"P1AAA","geocodeQuality":"POINT","dragPoint":false,"sideOfStreet":"R","linkId":"r20888073|p189008555|n27801769","unknownInput":"","type":"s","latLng":{"lat":39.280303,"lng":-76.651707},"displayLatLng":{"lat":39.280166,"lng":-76.651663}}]},{"providedLocation":{"location":"1301 PRATT ST, Baltimore MD"},"locations":[{"street":"1301 W Pratt St","adminArea6":"","adminArea6Type":"Neighborhood","adminArea5":"Baltimore","adminArea5Type":"City","adminArea4":"Baltimore City","adminArea4Type":"County","adminArea3":"MD","adminArea3Type":"State","adminArea1":"US","adminArea1Type":"Country","postalCode":"21223-3144","geocodeQualityCode":"P1BAA","geocodeQuality":"POINT","dragPoint":false,"sideOfStreet":"L","linkId":"r21029102|p186120592|n27979967","unknownInput":"","type":"s","latLng":{"lat":39.285515,"lng":-76.638144},"displayLatLng":{"lat":39.285393,"lng":-76.63813}}]},{"providedLocation":{"location":"301 PAYSON ST, Baltimore MD"},"locations":[{"street":"301 N Payson St","adminArea6":"","adminArea6Type":"Neighborhood","adminArea5":"Baltimore","adminArea5Type":"City","adminArea4":"Baltimore City","adminArea4Type":"County","adminArea3":"MD","adminArea3Type":"State","adminArea1":"US","adminArea1Type":"Country","postalCode":"21223-1501","geocodeQualityCode":"P1BAA","geocodeQuality":"POINT","dragPoint":false,"sideOfStreet":"R","linkId":"r21010155|p186479327|n27961053","unknownInput":"","type":"s","latLng":{"lat":39.292045,"lng":-76.648895},"displayLatLng":{"lat":39.292056,"lng":-76.648627}}]}]}
