{"info":{"statuscode":0,"copyright":{"text":"\u00A9 2020 MapQuest, Inc.","imageUrl":"http://api.mqcdn.com/res/mqlogo.gif","imageAltText":"\u00A9 2020 MapQuest, Inc."},"messages":[]},"options":{"maxResults":1,"thumbMaps":false,"ignoreLatLngInput":false},"results":[{"providedLocation":{"location":"6219 BELAIR RD, Baltimore MD"},"locations":[{"street":"6219 Belair Rd","adminArea6":"","adminArea6Type":"Neighborhood","adminArea5":"Baltimore","adminArea5Type":"City","adminArea4":"Baltimore City","adminArea4Type":"County","adminArea3":"MD","adminArea3Type":"State","adminArea1":"US","adminArea1Type":"Country","postalCode":"21206-1942","geocodeQualityCode":"P1AAA","geocodeQuality":"POINT","dragPoint":false,"sideOfStreet":"R","linkId":"r21122837|p189792832|n28133378","unknownInput":"","type":"s","latLng":{"lat":39.350375,"lng":-76.535622},"displayLatLng":{"lat":39.350272,"lng":-76.535466}}]},{"providedLocation":{"location":"5625 O DONNELL ST, Baltimore MD"},"locations":[{"street":"5625 O'Donnell St","adminArea6":"","adminArea6Type":"Neighborhood","adminArea5":"Baltimore","adminArea5Type":"City","adminArea4":"Baltimore City","adminArea4Type":"County","adminArea3":"MD","adminArea3Type":"State","adminArea1":"US","adminArea1Type":"Country","postalCode":"21224-4630","geocodeQualityCode":"P1AAA","geocodeQuality":"POINT","dragPoint":false,"sideOfStreet":"R","linkId":"r23886863|p185993740|n31847779","unknownInput":"","type":"s","latLng":{"lat":39.28128,"lng":-76.547405},"displayLatLng":{"lat":39.281135,"lng":-76.547398}}]},{"providedLocation":{"location":"3300 REISTERSTOWN RD, Baltimore MD"},"locations":[{"street":"3300 Reisterstown Rd","adminArea6":"","adminArea6Type":"Neighborhood","adminArea5":"Baltimore","adminArea5Type":"City","adminArea4":"Baltimore City","adminArea4Type":"County","adminArea3":"MD","adminArea3Type":"State","adminArea1":"US","adminArea1Type":"Country","postalCode":"21215-7822","geocodeQualityCode":"P1AAA","geocodeQuality":"POINT","dragPoint":false,"sideOfStreet":"L","linkId":"r23047232|p187580501|n30704966","unknownInput":"","type":"s","latLng":{"lat":39.324685,"lng":-76.657196},"displayLatLng":{"lat":39.324593,"lng":-76.657387}}]},{"providedLocation":{"location":"5000 SINCLAIR LN, Baltimore MD"},"locations":[{"street":"5000 Sinclair Ln","adminArea6":"","adminArea6Type":"Neighborhood","adminArea5":"Baltimore","adminArea5Type":"City","adminArea4":"Baltimore City","adminArea4Type":"County","adminArea3":"MD","adminArea3Type":"State","adminArea1":"US","adminArea1Type":"Country","postalCode":"21206-5936","geocodeQualityCode":"P1AAA","geocodeQuality":"POINT","dragPoint":false,"sideOfStreet":"L","linkId":"r21022599|p186459838|n27969141","unknownInput":"","type":"s","latLng":{"lat":39.322384,"lng":-76.545701},"displayLatLng":{"lat":39.322629,"lng":-76.545786}}]},{"providedLocation":{"location":"6600 REISTERSTOWN RD, Baltimore MD"},"locations":[{"street":"6600 Reisterstown Rd","adminArea6":"","adminArea6Type":"Neighborhood","adminArea5":"Baltimore","adminArea5Type":"City","adminArea4":"Baltimore City","adminArea4Type":"County","adminArea3":"MD","adminArea3Type":"State","adminArea1":"US","adminArea1Type":"Country","postalCode":"21215-2305","geocodeQualityCode":"P1AAA","geocodeQuality":"POINT","dragPoint":false,"sideOfStreet":"L","linkId":"r21080448|p188169728|n28056799","unknownInput":"","type":"s","latLng":{"lat":39.357073,"lng":-76.703734},"displayLatLng":{"lat":39.35681,"lng":-76.704058}}]},{"providedLocation":{"location":"4825 BELAIR RD, Baltimore MD"},"locations":[{"street":"4825 Belair Rd","adminArea6":"","adminArea6Type":"Neighborhood","adminArea5":"Baltimore","adminArea5Type":"City","adminArea4":"Baltimore City","adminArea4Type":"County","adminArea3":"MD","adminArea3Type":"State","adminArea1":"US","adminArea1Type":"Country","postalCode":"21206-5731","geocodeQualityCode":"P1AAA","geocodeQuality":"POINT","dragPoint":false,"sideOfStreet":"R","linkId":"r22917079|p185924134|n30530031","unknownInput":"","type":"s","latLng":{"lat":39.333621,"lng":-76.558019},"displayLatLng":{"lat":39.333529,"lng":-76.557911}}]},{"providedLocation":{"location":"1017 LIGHT ST, Baltimore MD"},"locations":[{"street":"1017 Light St","adminArea6":"","adminArea6Type":"Neighborhood","adminArea5":"Baltimore","adminArea5Type":"City","adminArea4":"Baltimore City","adminArea4Type":"County","adminArea3":"MD","adminArea3Type":"State","adminArea1":"US","adminArea1Type":"Country","postalCode":"21230-4017","geocodeQualityCode":"P1AAA","geocodeQuality":"POINT","dragPoint":false,"sideOfStreet":"L","linkId":"r21020790|p186094745|n27989221","unknownInput":"","type":"s","latLng":{"lat":39.277829,"lng":-76.612479},"displayLatLng":{"lat":39.277845,"lng":-76.612273}}]},{"providedLocation":{"location":"5732 WABASH AVE, Baltimore MD"},"locations":[{"street":"5732 Wabash Ave","adminArea6":"","adminArea6Type":"Neighborhood","adminArea5":"Baltimore","adminArea5Type":"City","adminArea4":"Baltimore City","adminArea4Type":"County","adminArea3":"MD","adminArea3Type":"State","adminArea1":"US","adminArea1Type":"Country","postalCode":"21215-3203","geocodeQualityCode":"L1AAA","geocodeQuality":"ADDRESS","dragPoint":false,"sideOfStreet":"L","linkId":"rnr9427623|i27307089","unknownInput":"","type":"s","latLng":{"lat":39.348894,"lng":-76.700783},"displayLatLng":{"lat":39.348739,"lng":-76.700909}}]},{"providedLocation":{"location":"2863 NORTH AVE, Baltimore MD"},"locations":[{"street":"[1301 - 1399] North Ave","adminArea6":"","adminArea6Type":"Neighborhood","adminArea5":"Halethorpe","adminArea5Type":"City","adminArea4":"Baltimore","adminArea4Type":"County","adminArea3":"MD","adminArea3Type":"State","adminArea1":"US","adminArea1Type":"Country","postalCode":"21227-2431","geocodeQualityCode":"B3AAA","geocodeQuality":"STREET","dragPoint":false,"sideOfStreet":"R","linkId":"rnr6464425|i30528360","unknownInput":"","type":"s","latLng":{"lat":39.251465,"lng":-76.69275},"displayLatLng":{"lat":39.25128,"lng":-76.692825}}]},{"providedLocation":{"location":"1121 LIGHT ST, Baltimore MD"},"locations":[{"street":"1121 Light St","adminArea6":"","adminArea6Type":"Neighborhood","adminArea5":"Baltimore","adminArea5Type":"City","adminArea4":"Baltimore City","adminArea4Type":"County","adminArea3":"MD","adminArea3Type":"State","adminArea1":"US","adminArea1Type":"Country","postalCode":"21230-4104","geocodeQualityCode":"P1AAA","geocodeQuality":"POINT","dragPoint":false,"sideOfStreet":"L","linkId":"r20775413|p205052865|n27689414","unknownInput":"","type":"s","latLng":{"lat":39.276501,"lng":-76.61228},"displayLatLng":{"lat":39.276522,"lng":-76.612062}}]},{"providedLocation":{"location":"2201 PATAPSCO AVE, Baltimore MD"},"locations":[{"street":"[3701 - 3719] Patapsco Ave","adminArea6":"","adminArea6Type":"Neighborhood","adminArea5":"Middle River","adminArea5Type":"City","adminArea4":"Baltimore County","adminArea4Type":"County","adminArea3":"MD","adminArea3Type":"State","adminArea1":"US","adminArea1Type":"Country","postalCode":"21220","geocodeQualityCode":"B3AAA","geocodeQuality":"STREET","dragPoint":false,"sideOfStreet":"R","linkId":"rnr6921560|i27225699","unknownInput":"","type":"s","latLng":{"lat":39.310491,"lng":-76.401265},"displayLatLng":{"lat":39.310431,"lng":-76.401074}}]},{"providedLocation":{"location":"218 CHARLES ST, Baltimore MD"},"locations":[{"street":"218 Charles St","adminArea6":"","adminArea6Type":"Neighborhood","adminArea5":"Brooklyn","adminArea5Type":"City","adminArea4":"Baltimore City","adminArea4Type":"County","adminArea3":"MD","adminArea3Type":"State","adminArea1":"US","adminArea1Type":"Country","postalCode":"21225-2847","geocodeQualityCode":"L1AAA","geocodeQuality":"ADDRESS","dragPoint":false,"sideOfStreet":"L","linkId":"rnr2361827|i31132320","unknownInput":"","type":"s","latLng":{"lat":39.230761,"lng":-76.611173},"displayLatLng":{"lat":39.230952,"lng":-76.611113}}]},{"providedLocation":{"location":"907 36TH ST, Baltimore MD"},"locations":[{"street":"907 W 36th St","adminArea6":"","adminArea6Type":"Neighborhood","adminArea5":"Baltimore","adminArea5Type":"City","adminArea4":"Baltimore City","adminArea4Type":"County","adminArea3":"MD","adminArea3Type":"State","adminArea1":"US","adminArea1Type":"Country","postalCode":"21211-2414","geocodeQualityCode":"P1BAA","geocodeQuality":"POINT","dragPoint":false,"sideOfStreet":"L","linkId":"r22756678|p188242290|n30312985","unknownInput":"","type":"s","latLng":{"lat":39.331139,"lng":-76.631629},"displayLatLng":{"lat":39.33101,"lng":-76.631622}}]},{"providedLocation":{"location":"410 REDWOOD ST, Baltimore MD"},"locations":[{"street":"410 W Redwood St","adminArea6":"","adminArea6Type":"Neighborhood","adminArea5":"Baltimore","adminArea5Type":"City","adminArea4":"Baltimore City","adminArea4Type":"County","adminArea3":"MD","adminArea3Type":"State","adminArea1":"US","adminArea1Type":"Country","postalCode":"21201-1704","geocodeQualityCode":"P1BAA","geocodeQuality":"POINT","dragPoint":false,"sideOfStreet":"R","linkId":"r23162000|p187351291|n30951111","unknownInput":"","type":"s","latLng":{"lat":39.288618,"lng":-76.621611},"displayLatLng":{"lat":39.288803,"lng":-76.621596}}]},{"providedLocation":{"location":"35 POTOMAC ST, Baltimore MD"},"locations":[{"street":"35 N Potomac St","adminArea6":"","adminArea6Type":"Neighborhood","adminArea5":"Baltimore","adminArea5Type":"City","adminArea4":"Baltimore City","adminArea4Type":"County","adminArea3":"MD","adminArea3Type":"State","adminArea1":"US","adminArea1Type":"Country","postalCode":"21224-1336","geocodeQualityCode":"P1BAA","geocodeQuality":"POINT","dragPoint":false,"sideOfStreet":"R","linkId":"r20883749|p188811692|n27794092","unknownInput":"","type":"s","latLng":{"lat":39.293256,"lng":-76.574835},"displayLatLng":{"lat":39.293273,"lng":-76.574617}}]},{"providedLocation":{"location":"2100 FLEET ST, Baltimore MD"},"locations":[{"street":"2100 Fleet St","adminArea6":"","adminArea6Type":"Neighborhood","adminArea5":"Baltimore","adminArea5Type":"City","adminArea4":"Baltimore City","adminArea4Type":"County","adminArea3":"MD","adminArea3Type":"State","adminArea1":"US","adminArea1Type":"Country","postalCode":"21231-3117","geocodeQualityCode":"P1AAA","geocodeQuality":"POINT","dragPoint":false,"sideOfStreet":"L","linkId":"r20936425|p187506091|n27879262","unknownInput":"","type":"s","latLng":{"lat":39.28483,"lng":-76.586728},"displayLatLng":{"lat":39.285021,"lng":-76.586716}}]},{"providedLocation":{"location":"2400 BOSTON ST, Baltimore MD"},"locations":[{"street":"2400 Boston St","adminArea6":"","adminArea6Type":"Neighborhood","adminArea5":"Baltimore","adminArea5Type":"City","adminArea4":"Baltimore City","adminArea4Type":"County","adminArea3":"MD","adminArea3Type":"State","adminArea1":"US","adminArea1Type":"Country","postalCode":"21224","geocodeQualityCode":"P1AAA","geocodeQuality":"POINT","dragPoint":false,"sideOfStreet":"N","linkId":"a496f5d1-e979-477b-bfce-ac26dabf36eb","unknownInput":"","type":"s","latLng":{"lat":39.28199,"lng":-76.582629},"displayLatLng":{"lat":39.28199,"lng":-76.582629}}]},{"providedLocation":{"location":"3208 GREENMOUNT AVE, Baltimore MD"},"locations":[{"street":"3208 Greenmount Ave","adminArea6":"","adminArea6Type":"Neighborhood","adminArea5":"Baltimore","adminArea5Type":"City","adminArea4":"Baltimore City","adminArea4Type":"County","adminArea3":"MD","adminArea3Type":"State","adminArea1":"US","adminArea1Type":"Country","postalCode":"21218-3438","geocodeQualityCode":"P1AAA","geocodeQuality":"POINT","dragPoint":false,"sideOfStreet":"L","linkId":"r21129931|p188271547|n28126029","unknownInput":"","type":"s","latLng":{"lat":39.327522,"lng":-76.60942},"displayLatLng":{"lat":39.327521,"lng":-76.609608}}]},{"providedLocation":{"location":"5100 SINCLAIR LN, Baltimore MD"},"locations":[{"street":"5100 Sinclair Ln","adminArea6":"","adminArea6Type":"Neighborhood","adminArea5":"Baltimore","adminArea5Type":"City","adminArea4":"Baltimore City","adminArea4Type":"County","adminArea3":"MD","adminArea3Type":"State","adminArea1":"US","adminArea1Type":"Country","postalCode":"21206-5939","geocodeQualityCode":"P1AAA","geocodeQuality":"POINT","dragPoint":false,"sideOfStreet":"L","linkId":"r23247444|p186799541|n30946156","unknownInput":"","type":"s","latLng":{"lat":39.322698,"lng":-76.544496},"displayLatLng":{"lat":39.323594,"lng":-76.544907}}]},{"providedLocation":{"location":"801 CONKLING ST, Baltimore MD"},"locations":[{"street":"801 S Conkling St","adminArea6":"","adminArea6Type":"Neighborhood","adminArea5":"Baltimore","adminArea5Type":"City","adminArea4":"Baltimore City","adminArea4Type":"County","adminArea3":"MD","adminArea3Type":"State","adminArea1":"US","adminArea1Type":"Country","postalCode":"21224-4304","geocodeQualityCode":"P1BAA","geocodeQuality":"POINT","dragPoint":false,"sideOfStreet":"L","linkId":"r20882362|p187992858|n27807540","unknownInput":"","type":"s","latLng":{"lat":39.283438,"lng":-76.566938},"displayLatLng":{"lat":39.283443,"lng":-76.566716}}]},{"providedLocation":{"location":"644 FORT AVE, Baltimore MD"},"locations":[{"street":"644 E Fort Ave","adminArea6":"","adminArea6Type":"Neighborhood","adminArea5":"Baltimore","adminArea5Type":"City","adminArea4":"Baltimore City","adminArea4Type":"County","adminArea3":"MD","adminArea3Type":"State","adminArea1":"US","adminArea1Type":"Country","postalCode":"21230-4723","geocodeQualityCode":"P1BAA","geocodeQuality":"POINT","dragPoint":false,"sideOfStreet":"L","linkId":"r22637118|p187287968|n30154183","unknownInput":"","type":"s","latLng":{"lat":39.272657,"lng":-76.604199},"displayLatLng":{"lat":39.272815,"lng":-76.604104}}]},{"providedLocation":{"location":"4301 HARFORD RD, Baltimore MD"},"locations":[{"street":"4301 Harford Rd","adminArea6":"","adminArea6Type":"Neighborhood","adminArea5":"Baltimore","adminArea5Type":"City","adminArea4":"Baltimore City","adminArea4Type":"County","adminArea3":"MD","adminArea3Type":"State","adminArea1":"US","adminArea1Type":"Country","postalCode":"21214-3117","geocodeQualityCode":"P1AAA","geocodeQuality":"POINT","dragPoint":false,"sideOfStreet":"R","linkId":"r20895055|p188602221|n27810163","unknownInput":"","type":"s","latLng":{"lat":39.338701,"lng":-76.573441},"displayLatLng":{"lat":39.338608,"lng":-76.573277}}]},{"providedLocation":{"location":"1520 CLIPPER RD, Baltimore MD"},"locations":[{"street":"1520 Clipper Rd","adminArea6":"","adminArea6Type":"Neighborhood","adminArea5":"Baltimore","adminArea5Type":"City","adminArea4":"Baltimore City","adminArea4Type":"County","adminArea3":"MD","adminArea3Type":"State","adminArea1":"US","adminArea1Type":"Country","postalCode":"21211-2318","geocodeQualityCode":"L1AAA","geocodeQuality":"ADDRESS","dragPoint":false,"sideOfStreet":"L","linkId":"rnr2531101|i30941207","unknownInput":"","type":"s","latLng":{"lat":39.326699,"lng":-76.636788},"displayLatLng":{"lat":39.326897,"lng":-76.636762}}]},{"providedLocation":{"location":"1702 THAMES ST, Baltimore MD"},"locations":[{"street":"1702 Thames St","adminArea6":"","adminArea6Type":"Neighborhood","adminArea5":"Baltimore","adminArea5Type":"City","adminArea4":"Baltimore City","adminArea4Type":"County","adminArea3":"MD","adminArea3Type":"State","adminArea1":"US","adminArea1Type":"Country","postalCode":"21231-3416","geocodeQualityCode":"P1AAA","geocodeQuality":"POINT","dragPoint":false,"sideOfStreet":"L","linkId":"r22920430|p191169340|n30519249","unknownInput":"","type":"s","latLng":{"lat":39.281848,"lng":-76.592437},"displayLatLng":{"lat":39.282041,"lng":-76.592457}}]},{"providedLocation":{"location":"6309 REISTERSTOWN RD, Baltimore MD"},"locations":[{"street":"6309 Reisterstown Rd","adminArea6":"","adminArea6Type":"Neighborhood","adminArea5":"Baltimore","adminArea5Type":"City","adminArea4":"Baltimore City","adminArea4Type":"County","adminArea3":"MD","adminArea3Type":"State","adminArea1":"US","adminArea1Type":"Country","postalCode":"21215-2301","geocodeQualityCode":"P1AAA","geocodeQuality":"POINT","dragPoint":false,"sideOfStreet":"R","linkId":"r20922003|p194295580|n27843647","unknownInput":"","type":"s","latLng":{"lat":39.35501,"lng":-76.700762},"displayLatLng":{"lat":39.355196,"lng":-76.70054}}]},{"providedLocation":{"location":"701 BARTLETT AVE, Baltimore MD"},"locations":[{"street":"701 Bartlett Ave","adminArea6":"","adminArea6Type":"Neighborhood","adminArea5":"Baltimore","adminArea5Type":"City","adminArea4":"Baltimore City","adminArea4Type":"County","adminArea3":"MD","adminArea3Type":"State","adminArea1":"US","adminArea1Type":"Country","postalCode":"21218-5415","geocodeQualityCode":"P1AAA","geocodeQuality":"POINT","dragPoint":false,"sideOfStreet":"R","linkId":"r23829440|p203750311|n31769156","unknownInput":"","type":"s","latLng":{"lat":39.316096,"lng":-76.606257},"displayLatLng":{"lat":39.315973,"lng":-76.606398}}]},{"providedLocation":{"location":"206 SARATOGA ST, Baltimore MD"},"locations":[{"street":"206 W Saratoga St","adminArea6":"","adminArea6Type":"Neighborhood","adminArea5":"Baltimore","adminArea5Type":"City","adminArea4":"Baltimore City","adminArea4Type":"County","adminArea3":"MD","adminArea3Type":"State","adminArea1":"US","adminArea1Type":"Country","postalCode":"21201-3511","geocodeQualityCode":"P1BAA","geocodeQuality":"POINT","dragPoint":false,"sideOfStreet":"R","linkId":"r23158958|p188738617|n30839452","unknownInput":"","type":"s","latLng":{"lat":39.292924,"lng":-76.61846},"displayLatLng":{"lat":39.293138,"lng":-76.618468}}]},{"providedLocation":{"location":"2300 SIDNEY AVE, Baltimore MD"},"locations":[{"street":"2300 Sidney Ave","adminArea6":"","adminArea6Type":"Neighborhood","adminArea5":"Baltimore","adminArea5Type":"City","adminArea4":"Baltimore City","adminArea4Type":"County","adminArea3":"MD","adminArea3Type":"State","adminArea1":"US","adminArea1Type":"Country","postalCode":"21230-3134","geocodeQualityCode":"P1AAA","geocodeQuality":"POINT","dragPoint":false,"sideOfStreet":"R","linkId":"r21517259|p185569880|n28685217","unknownInput":"","type":"s","latLng":{"lat":39.262668,"lng":-76.633203},"displayLatLng":{"lat":39.262735,"lng":-76.633398}}]},{"providedLocation":{"location":"3127 NORTH AVE, Baltimore MD"},"locations":[{"street":"[1301 - 1399] North Ave","adminArea6":"","adminArea6Type":"Neighborhood","adminArea5":"Halethorpe","adminArea5Type":"City","adminArea4":"Baltimore","adminArea4Type":"County","adminArea3":"MD","adminArea3Type":"State","adminArea1":"US","adminArea1Type":"Country","postalCode":"21227-2431","geocodeQualityCode":"B3AAA","geocodeQuality":"STREET","dragPoint":false,"sideOfStreet":"R","linkId":"rnr6464425|i30528360","unknownInput":"","type":"s","latLng":{"lat":39.251465,"lng":-76.69275},"displayLatLng":{"lat":39.25128,"lng":-76.692825}}]},{"providedLocation":{"location":"911 CHARLES ST, Baltimore MD"},"locations":[{"street":"[211 - 299] Charles St","adminArea6":"","adminArea6Type":"Neighborhood","adminArea5":"Brooklyn","adminArea5Type":"City","adminArea4":"Baltimore City","adminArea4Type":"County","adminArea3":"MD","adminArea3Type":"State","adminArea1":"US","adminArea1Type":"Country","postalCode":"21225-2846","geocodeQualityCode":"B3AAA","geocodeQuality":"STREET","dragPoint":false,"sideOfStreet":"R","linkId":"rnr2361827|i31134039","unknownInput":"","type":"s","latLng":{"lat":39.23069,"lng":-76.610955},"displayLatLng":{"lat":39.230501,"lng":-76.611019}}]},{"providedLocation":{"location":"4742 Frederick Ave, Baltimore MD"},"locations":[{"street":"4742 Frederick Ave","adminArea6":"","adminArea6Type":"Neighborhood","adminArea5":"Baltimore","adminArea5Type":"City","adminArea4":"Baltimore City","adminArea4Type":"County","adminArea3":"MD","adminArea3Type":"State","adminArea1":"US","adminArea1Type":"Country","postalCode":"21229-4001","geocodeQualityCode":"P1AAA","geocodeQuality":"POINT","dragPoint":false,"sideOfStreet":"R","linkId":"r23247458|p188314466|n30960118","unknownInput":"","type":"s","latLng":{"lat":39.281387,"lng":-76.694696},"displayLatLng":{"lat":39.281632,"lng":-76.694704}}]},{"providedLocation":{"location":"1476 REYNOLDS ST, Baltimore MD"},"locations":[{"street":"1476 Reynolds St","adminArea6":"","adminArea6Type":"Neighborhood","adminArea5":"Baltimore","adminArea5Type":"City","adminArea4":"Baltimore City","adminArea4Type":"County","adminArea3":"MD","adminArea3Type":"State","adminArea1":"US","adminArea1Type":"Country","postalCode":"21230-5319","geocodeQualityCode":"P1AAA","geocodeQuality":"POINT","dragPoint":false,"sideOfStreet":"R","linkId":"r21146696|p186077124|n28153616","unknownInput":"","type":"s","latLng":{"lat":39.267969,"lng":-76.590402},"displayLatLng":{"lat":39.268031,"lng":-76.590566}}]},{"providedLocation":{"location":"1100 FORT AVE, Baltimore MD"},"locations":[{"street":"1100 E Fort Ave","adminArea6":"","adminArea6Type":"Neighborhood","adminArea5":"Baltimore","adminArea5Type":"City","adminArea4":"Baltimore City","adminArea4Type":"County","adminArea3":"MD","adminArea3Type":"State","adminArea1":"US","adminArea1Type":"Country","postalCode":"21230-5103","geocodeQualityCode":"P1BAA","geocodeQuality":"POINT","dragPoint":false,"sideOfStreet":"L","linkId":"r22937218|p185343426|n30550115","unknownInput":"","type":"s","latLng":{"lat":39.270731,"lng":-76.598725},"displayLatLng":{"lat":39.270926,"lng":-76.598618}}]},{"providedLocation":{"location":"1718 EASTERN AVE, Baltimore MD"},"locations":[{"street":"1718 Eastern Ave","adminArea6":"","adminArea6Type":"Neighborhood","adminArea5":"Baltimore","adminArea5Type":"City","adminArea4":"Baltimore City","adminArea4Type":"County","adminArea3":"MD","adminArea3Type":"State","adminArea1":"US","adminArea1Type":"Country","postalCode":"21231-2419","geocodeQualityCode":"P1AAA","geocodeQuality":"POINT","dragPoint":false,"sideOfStreet":"L","linkId":"r23525273|p185818655|n31340361","unknownInput":"","type":"s","latLng":{"lat":39.285612,"lng":-76.592448},"displayLatLng":{"lat":39.285804,"lng":-76.592458}}]},{"providedLocation":{"location":"706 BROADWAY, Baltimore MD"},"locations":[{"street":"706 S Broadway","adminArea6":"","adminArea6Type":"Neighborhood","adminArea5":"Baltimore","adminArea5Type":"City","adminArea4":"Baltimore City","adminArea4Type":"County","adminArea3":"MD","adminArea3Type":"State","adminArea1":"US","adminArea1Type":"Country","postalCode":"21231-3406","geocodeQualityCode":"P1BAA","geocodeQuality":"POINT","dragPoint":false,"sideOfStreet":"R","linkId":"r22997487|p185453503|n30612088","unknownInput":"","type":"s","latLng":{"lat":39.283243,"lng":-76.593492},"displayLatLng":{"lat":39.283242,"lng":-76.593695}}]},{"providedLocation":{"location":"3210 PULASKI HWY, Baltimore MD"},"locations":[{"street":"3210 Pulaski Hwy","adminArea6":"","adminArea6Type":"Neighborhood","adminArea5":"Baltimore","adminArea5Type":"City","adminArea4":"Baltimore City","adminArea4Type":"County","adminArea3":"MD","adminArea3Type":"State","adminArea1":"US","adminArea1Type":"Country","postalCode":"21224-1445","geocodeQualityCode":"P1AAA","geocodeQuality":"POINT","dragPoint":false,"sideOfStreet":"L","linkId":"r21041675|p188676557|n27995436","unknownInput":"","type":"s","latLng":{"lat":39.295697,"lng":-76.572122},"displayLatLng":{"lat":39.29587,"lng":-76.572191}}]},{"providedLocation":{"location":"1453 LIGHT ST, Baltimore MD"},"locations":[{"street":"1453 Light St","adminArea6":"","adminArea6Type":"Neighborhood","adminArea5":"Baltimore","adminArea5Type":"City","adminArea4":"Baltimore City","adminArea4Type":"County","adminArea3":"MD","adminArea3Type":"State","adminArea1":"US","adminArea1Type":"Country","postalCode":"21230-4536","geocodeQualityCode":"P1AAA","geocodeQuality":"POINT","dragPoint":false,"sideOfStreet":"L","linkId":"r20972164|p187429838|n27895650","unknownInput":"","type":"s","latLng":{"lat":39.272912,"lng":-76.611766},"displayLatLng":{"lat":39.272947,"lng":-76.611556}}]},{"providedLocation":{"location":"1650 54 E PRATT ST, Baltimore MD"},"locations":[{"street":"1650 E Pratt St, 54","adminArea6":"","adminArea6Type":"Neighborhood","adminArea5":"Baltimore","adminArea5Type":"City","adminArea4":"Baltimore City","adminArea4Type":"County","adminArea3":"MD","adminArea3Type":"State","adminArea1":"US","adminArea1Type":"Country","postalCode":"21231-1719","geocodeQualityCode":"L1AAA","geocodeQuality":"ADDRESS","dragPoint":false,"sideOfStreet":"L","linkId":"rnr3776584|i30639378","unknownInput":"","type":"s","latLng":{"lat":39.289223,"lng":-76.594231},"displayLatLng":{"lat":39.289422,"lng":-76.594239}}]},{"providedLocation":{"location":"1012 EASTERN AVE, Baltimore MD"},"locations":[{"street":"1012 Eastern Ave","adminArea6":"","adminArea6Type":"Neighborhood","adminArea5":"Baltimore","adminArea5Type":"City","adminArea4":"Baltimore City","adminArea4Type":"County","adminArea3":"MD","adminArea3Type":"State","adminArea1":"US","adminArea1Type":"Country","postalCode":"21202-4326","geocodeQualityCode":"P1AAA","geocodeQuality":"POINT","dragPoint":false,"sideOfStreet":"L","linkId":"r20818047|p186968376|n27717433","unknownInput":"","type":"s","latLng":{"lat":39.285298,"lng":-76.599771},"displayLatLng":{"lat":39.285481,"lng":-76.599785}}]},{"providedLocation":{"location":"3928 EASTERN AVE, Baltimore MD"},"locations":[{"street":"3928 Eastern Ave","adminArea6":"","adminArea6Type":"Neighborhood","adminArea5":"Baltimore","adminArea5Type":"City","adminArea4":"Baltimore City","adminArea4Type":"County","adminArea3":"MD","adminArea3Type":"State","adminArea1":"US","adminArea1Type":"Country","postalCode":"21224-4223","geocodeQualityCode":"P1AAA","geocodeQuality":"POINT","dragPoint":false,"sideOfStreet":"L","linkId":"r23169301|p185837443|n30856592","unknownInput":"","type":"s","latLng":{"lat":39.286761,"lng":-76.563476},"displayLatLng":{"lat":39.286936,"lng":-76.563485}}]},{"providedLocation":{"location":"248 ALBEMARLE ST, Baltimore MD"},"locations":[{"street":"248 Albemarle St","adminArea6":"","adminArea6Type":"Neighborhood","adminArea5":"Baltimore","adminArea5Type":"City","adminArea4":"Baltimore City","adminArea4Type":"County","adminArea3":"MD","adminArea3Type":"State","adminArea1":"US","adminArea1Type":"Country","postalCode":"21202-4455","geocodeQualityCode":"P1AAA","geocodeQuality":"POINT","dragPoint":false,"sideOfStreet":"R","linkId":"r23884399|p188093607|n31874937","unknownInput":"","type":"s","latLng":{"lat":39.286303,"lng":-76.602402},"displayLatLng":{"lat":39.28623,"lng":-76.602593}}]},{"providedLocation":{"location":"2637 GREENMOUNT AVE, Baltimore MD"},"locations":[{"street":"2637 Greenmount Ave","adminArea6":"","adminArea6Type":"Neighborhood","adminArea5":"Baltimore","adminArea5Type":"City","adminArea4":"Baltimore City","adminArea4Type":"County","adminArea3":"MD","adminArea3Type":"State","adminArea1":"US","adminArea1Type":"Country","postalCode":"21218-4724","geocodeQualityCode":"P1AAA","geocodeQuality":"POINT","dragPoint":false,"sideOfStreet":"R","linkId":"r20995270|p187765437|n27942872","unknownInput":"","type":"s","latLng":{"lat":39.320562,"lng":-76.609475},"displayLatLng":{"lat":39.320558,"lng":-76.609247}}]},{"providedLocation":{"location":"2522 FAIT AVE, Baltimore MD"},"locations":[{"street":"2522 Fait Ave","adminArea6":"","adminArea6Type":"Neighborhood","adminArea5":"Baltimore","adminArea5Type":"City","adminArea4":"Baltimore City","adminArea4Type":"County","adminArea3":"MD","adminArea3Type":"State","adminArea1":"US","adminArea1Type":"Country","postalCode":"21224-3721","geocodeQualityCode":"P1AAA","geocodeQuality":"POINT","dragPoint":false,"sideOfStreet":"L","linkId":"r22698446|p186344919|n30230641","unknownInput":"","type":"s","latLng":{"lat":39.283049,"lng":-76.58041},"displayLatLng":{"lat":39.283219,"lng":-76.580442}}]},{"providedLocation":{"location":"2110 CHARLES ST, Baltimore MD"},"locations":[{"street":"[210 - 298] Charles St","adminArea6":"","adminArea6Type":"Neighborhood","adminArea5":"Brooklyn","adminArea5Type":"City","adminArea4":"Baltimore City","adminArea4Type":"County","adminArea3":"MD","adminArea3Type":"State","adminArea1":"US","adminArea1Type":"Country","postalCode":"21225-2847","geocodeQualityCode":"B3AAA","geocodeQuality":"STREET","dragPoint":false,"sideOfStreet":"L","linkId":"rnr2361827|i31132320","unknownInput":"","type":"s","latLng":{"lat":39.23069,"lng":-76.610955},"displayLatLng":{"lat":39.23088,"lng":-76.61089}}]},{"providedLocation":{"location":"1000 HOFFMAN ST, Baltimore MD"},"locations":[{"street":"1000 E Hoffman St","adminArea6":"","adminArea6Type":"Neighborhood","adminArea5":"Baltimore","adminArea5Type":"City","adminArea4":"Baltimore City","adminArea4Type":"County","adminArea3":"MD","adminArea3Type":"State","adminArea1":"US","adminArea1Type":"Country","postalCode":"21202-5717","geocodeQualityCode":"P1BAA","geocodeQuality":"POINT","dragPoint":false,"sideOfStreet":"L","linkId":"r20853289|p188707751|n27751216","unknownInput":"","type":"s","latLng":{"lat":39.30606,"lng":-76.603655},"displayLatLng":{"lat":39.306239,"lng":-76.60366}}]},{"providedLocation":{"location":"18 CUSTOM HOUSE AVE, Baltimore MD"},"locations":[{"street":"18 Custom House Ave","adminArea6":"","adminArea6Type":"Neighborhood","adminArea5":"Baltimore","adminArea5Type":"City","adminArea4":"Baltimore City","adminArea4Type":"County","adminArea3":"MD","adminArea3Type":"State","adminArea1":"US","adminArea1Type":"Country","postalCode":"21202-3259","geocodeQualityCode":"L1AAA","geocodeQuality":"ADDRESS","dragPoint":false,"sideOfStreet":"R","linkId":"rnr3161725|i27322606","unknownInput":"","type":"s","latLng":{"lat":39.288584,"lng":-76.609701},"displayLatLng":{"lat":39.288568,"lng":-76.609901}}]},{"providedLocation":{"location":"529 BOND ST, Baltimore MD"},"locations":[{"street":"529 S Bond St","adminArea6":"","adminArea6Type":"Neighborhood","adminArea5":"Baltimore","adminArea5Type":"City","adminArea4":"Baltimore City","adminArea4Type":"County","adminArea3":"MD","adminArea3Type":"State","adminArea1":"US","adminArea1Type":"Country","postalCode":"21231-2805","geocodeQualityCode":"P1BAA","geocodeQuality":"POINT","dragPoint":false,"sideOfStreet":"L","linkId":"r20971829|p185998282|n27903443","unknownInput":"","type":"s","latLng":{"lat":39.284626,"lng":-76.595277},"displayLatLng":{"lat":39.284627,"lng":-76.595055}}]},{"providedLocation":{"location":"1622 EASTERN AVE, Baltimore MD"},"locations":[{"street":"1622 Eastern Ave","adminArea6":"","adminArea6Type":"Neighborhood","adminArea5":"Baltimore","adminArea5Type":"City","adminArea4":"Baltimore City","adminArea4Type":"County","adminArea3":"MD","adminArea3Type":"State","adminArea1":"US","adminArea1Type":"Country","postalCode":"21231-2331","geocodeQualityCode":"P1AAA","geocodeQuality":"POINT","dragPoint":false,"sideOfStreet":"L","linkId":"r20919344|p185207504|n27843400","unknownInput":"","type":"s","latLng":{"lat":39.28554,"lng":-76.594533},"displayLatLng":{"lat":39.285707,"lng":-76.594546}}]},{"providedLocation":{"location":"201 PRATT ST, Baltimore MD"},"locations":[{"street":"201 E Pratt St","adminArea6":"","adminArea6Type":"Neighborhood","adminArea5":"Baltimore","adminArea5Type":"City","adminArea4":"Baltimore City","adminArea4Type":"County","adminArea3":"MD","adminArea3Type":"State","adminArea1":"US","adminArea1Type":"Country","postalCode":"21202-1023","geocodeQualityCode":"P1BAA","geocodeQuality":"POINT","dragPoint":false,"sideOfStreet":"R","linkId":"r20849534|p274870287|n27757472","unknownInput":"","type":"s","latLng":{"lat":39.286611,"lng":-76.610968},"displayLatLng":{"lat":39.286225,"lng":-76.610956}}]},{"providedLocation":{"location":"509 BROADWAY, Baltimore MD"},"locations":[{"street":"509 S Broadway","adminArea6":"","adminArea6Type":"Neighborhood","adminArea5":"Baltimore","adminArea5Type":"City","adminArea4":"Baltimore City","adminArea4Type":"County","adminArea3":"MD","adminArea3Type":"State","adminArea1":"US","adminArea1Type":"Country","postalCode":"21231-2913","geocodeQualityCode":"P1BAA","geocodeQuality":"POINT","dragPoint":false,"sideOfStreet":"R","linkId":"r21013474|p187773151|n27948105","unknownInput":"","type":"s","latLng":{"lat":39.285241,"lng":-76.593345},"displayLatLng":{"lat":39.285255,"lng":-76.593086}}]},{"providedLocation":{"location":"646 NEWKIRK ST, Baltimore MD"},"locations":[{"street":"[2202 - 2298] Newkirk St","adminArea6":"","adminArea6Type":"Neighborhood","adminArea5":"Baltimore","adminArea5Type":"City","adminArea4":"Baltimore City","adminArea4Type":"County","adminArea3":"MD","adminArea3Type":"State","adminArea1":"US","adminArea1Type":"Country","postalCode":"21224","geocodeQualityCode":"B3AAA","geocodeQuality":"STREET","dragPoint":false,"sideOfStreet":"R","linkId":"rnr6333672|i29949905","unknownInput":"","type":"s","latLng":{"lat":39.265995,"lng":-76.555408},"displayLatLng":{"lat":39.265979,"lng":-76.555607}}]},{"providedLocation":{"location":"1301 PONCA ST, Baltimore MD"},"locations":[{"street":"1301 Ponca St","adminArea6":"","adminArea6Type":"Neighborhood","adminArea5":"Baltimore","adminArea5Type":"City","adminArea4":"Baltimore City","adminArea4Type":"County","adminArea3":"MD","adminArea3Type":"State","adminArea1":"US","adminArea1Type":"Country","postalCode":"21224-5307","geocodeQualityCode":"P1AAA","geocodeQuality":"POINT","dragPoint":false,"sideOfStreet":"L","linkId":"r23072313|p188272066|n30727683","unknownInput":"","type":"s","latLng":{"lat":39.278779,"lng":-76.554434},"displayLatLng":{"lat":39.278797,"lng":-76.55415}}]},{"providedLocation":{"location":"1639 THAMES ST, Baltimore MD"},"locations":[{"street":"1639 Thames St","adminArea6":"","adminArea6Type":"Neighborhood","adminArea5":"Baltimore","adminArea5Type":"City","adminArea4":"Baltimore City","adminArea4Type":"County","adminArea3":"MD","adminArea3Type":"State","adminArea1":"US","adminArea1Type":"Country","postalCode":"21231-3430","geocodeQualityCode":"P1AAA","geocodeQuality":"POINT","dragPoint":false,"sideOfStreet":"R","linkId":"r20809767|p188561321|n27699509","unknownInput":"","type":"s","latLng":{"lat":39.281664,"lng":-76.593637},"displayLatLng":{"lat":39.281514,"lng":-76.593533}}]},{"providedLocation":{"location":"3500 O DONNELL ST, Baltimore MD"},"locations":[{"street":"3500 O'Donnell St","adminArea6":"","adminArea6Type":"Neighborhood","adminArea5":"Baltimore","adminArea5Type":"City","adminArea4":"Baltimore City","adminArea4Type":"County","adminArea3":"MD","adminArea3Type":"State","adminArea1":"US","adminArea1Type":"Country","postalCode":"21224-5211","geocodeQualityCode":"P1AAA","geocodeQuality":"POINT","dragPoint":false,"sideOfStreet":"L","linkId":"r23276028|p187248706|n30980773","unknownInput":"","type":"s","latLng":{"lat":39.280498,"lng":-76.567549},"displayLatLng":{"lat":39.280673,"lng":-76.567567}}]},{"providedLocation":{"location":"801 ALICEANNA ST, Baltimore MD"},"locations":[{"street":"801 Aliceanna St","adminArea6":"","adminArea6Type":"Neighborhood","adminArea5":"Baltimore","adminArea5Type":"City","adminArea4":"Baltimore City","adminArea4Type":"County","adminArea3":"MD","adminArea3Type":"State","adminArea1":"US","adminArea1Type":"Country","postalCode":"21202-4385","geocodeQualityCode":"P1AAA","geocodeQuality":"POINT","dragPoint":false,"sideOfStreet":"R","linkId":"r20995007|p189004448|n27961069","unknownInput":"","type":"s","latLng":{"lat":39.283213,"lng":-76.60079},"displayLatLng":{"lat":39.282895,"lng":-76.600766}}]},{"providedLocation":{"location":"514 PULASKI ST, Baltimore MD"},"locations":[{"street":"514 N Pulaski St","adminArea6":"","adminArea6Type":"Neighborhood","adminArea5":"Baltimore","adminArea5Type":"City","adminArea4":"Baltimore City","adminArea4Type":"County","adminArea3":"MD","adminArea3Type":"State","adminArea1":"US","adminArea1Type":"Country","postalCode":"21223-1116","geocodeQualityCode":"P1BAA","geocodeQuality":"POINT","dragPoint":false,"sideOfStreet":"L","linkId":"r23185524|p185656974|n30880897","unknownInput":"","type":"s","latLng":{"lat":39.294223,"lng":-76.650407},"displayLatLng":{"lat":39.294212,"lng":-76.650627}}]},{"providedLocation":{"location":"100 PRATT ST, Baltimore MD"},"locations":[{"street":"100 W Pratt St","adminArea6":"","adminArea6Type":"Neighborhood","adminArea5":"Baltimore","adminArea5Type":"City","adminArea4":"Baltimore City","adminArea4Type":"County","adminArea3":"MD","adminArea3Type":"State","adminArea1":"US","adminArea1Type":"Country","postalCode":"21201","geocodeQualityCode":"P1BAA","geocodeQuality":"POINT","dragPoint":false,"sideOfStreet":"R","linkId":"r20958594|p185640669|n27892942","unknownInput":"","type":"s","latLng":{"lat":39.286396,"lng":-76.616858},"displayLatLng":{"lat":39.286414,"lng":-76.616859}}]},{"providedLocation":{"location":"614 LAURENS ST, Baltimore MD"},"locations":[{"street":"614 Laurens St","adminArea6":"","adminArea6Type":"Neighborhood","adminArea5":"Baltimore","adminArea5Type":"City","adminArea4":"Baltimore City","adminArea4Type":"County","adminArea3":"MD","adminArea3Type":"State","adminArea1":"US","adminArea1Type":"Country","postalCode":"21217-3212","geocodeQualityCode":"P1AAA","geocodeQuality":"POINT","dragPoint":false,"sideOfStreet":"R","linkId":"r23335154|p187207765|n31073736","unknownInput":"","type":"s","latLng":{"lat":39.303975,"lng":-76.636046},"displayLatLng":{"lat":39.304109,"lng":-76.636217}}]},{"providedLocation":{"location":"1300 BANK STREET, Baltimore MD"},"locations":[{"street":"1300 Bank St","adminArea6":"","adminArea6Type":"Neighborhood","adminArea5":"Baltimore","adminArea5Type":"City","adminArea4":"Baltimore City","adminArea4Type":"County","adminArea3":"MD","adminArea3Type":"State","adminArea1":"US","adminArea1Type":"Country","postalCode":"21231-2205","geocodeQualityCode":"P1AAA","geocodeQuality":"POINT","dragPoint":false,"sideOfStreet":"L","linkId":"r20881207|p275189789|n27792868","unknownInput":"","type":"s","latLng":{"lat":39.286373,"lng":-76.598704},"displayLatLng":{"lat":39.286529,"lng":-76.598715}}]},{"providedLocation":{"location":"1150 LOMBARD ST, Baltimore MD"},"locations":[{"street":"1150 E Lombard St","adminArea6":"","adminArea6Type":"Neighborhood","adminArea5":"Baltimore","adminArea5Type":"City","adminArea4":"Baltimore City","adminArea4Type":"County","adminArea3":"MD","adminArea3Type":"State","adminArea1":"US","adminArea1Type":"Country","postalCode":"21202-4519","geocodeQualityCode":"P1BAA","geocodeQuality":"POINT","dragPoint":false,"sideOfStreet":"R","linkId":"r21129079|p203729722|n28115444","unknownInput":"","type":"s","latLng":{"lat":39.290065,"lng":-76.60011},"displayLatLng":{"lat":39.290225,"lng":-76.600211}}]},{"providedLocation":{"location":"1500 WASHINGTON ST, Baltimore MD"},"locations":[{"street":"[3800 - 3906] Washington St","adminArea6":"","adminArea6Type":"Neighborhood","adminArea5":"Halethorpe","adminArea5Type":"City","adminArea4":"Baltimore","adminArea4Type":"County","adminArea3":"MD","adminArea3Type":"State","adminArea1":"US","adminArea1Type":"Country","postalCode":"21227-2248","geocodeQualityCode":"B3AAA","geocodeQuality":"STREET","dragPoint":false,"sideOfStreet":"R","linkId":"rnr9504261|i28431850","unknownInput":"","type":"s","latLng":{"lat":39.241144,"lng":-76.633613},"displayLatLng":{"lat":39.241206,"lng":-76.633803}}]},{"providedLocation":{"location":"1740 LIGHT ST, Baltimore MD"},"locations":[{"street":"1740 Light St","adminArea6":"","adminArea6Type":"Neighborhood","adminArea5":"Baltimore","adminArea5Type":"City","adminArea4":"Baltimore City","adminArea4Type":"County","adminArea3":"MD","adminArea3Type":"State","adminArea1":"US","adminArea1Type":"Country","postalCode":"21230-4919","geocodeQualityCode":"P1AAA","geocodeQuality":"POINT","dragPoint":false,"sideOfStreet":"R","linkId":"r20823345|p188201545|n27712248","unknownInput":"","type":"s","latLng":{"lat":39.26965,"lng":-76.611719},"displayLatLng":{"lat":39.269674,"lng":-76.611929}}]},{"providedLocation":{"location":"322 FRANKLINTOWN RD, Baltimore MD"},"locations":[{"street":"[4600 - 4602] Franklintown Rd","adminArea6":"","adminArea6Type":"Neighborhood","adminArea5":"Gwynn Oak","adminArea5Type":"City","adminArea4":"Baltimore City","adminArea4Type":"County","adminArea3":"MD","adminArea3Type":"State","adminArea1":"US","adminArea1Type":"Country","postalCode":"21207","geocodeQualityCode":"B3AAA","geocodeQuality":"STREET","dragPoint":false,"sideOfStreet":"L","linkId":"rnr4113860|i31232013","unknownInput":"","type":"s","latLng":{"lat":39.301597,"lng":-76.695678},"displayLatLng":{"lat":39.301792,"lng":-76.695724}}]},{"providedLocation":{"location":"100 LIGHT ST, Baltimore MD"},"locations":[{"street":"100 Light St","adminArea6":"","adminArea6Type":"Neighborhood","adminArea5":"Baltimore","adminArea5Type":"City","adminArea4":"Baltimore City","adminArea4Type":"County","adminArea3":"MD","adminArea3Type":"State","adminArea1":"US","adminArea1Type":"Country","postalCode":"21202-1004","geocodeQualityCode":"P1AAA","geocodeQuality":"POINT","dragPoint":false,"sideOfStreet":"R","linkId":"r20915161|p188873238|n27841452","unknownInput":"","type":"s","latLng":{"lat":39.287274,"lng":-76.613586},"displayLatLng":{"lat":39.287257,"lng":-76.614294}}]},{"providedLocation":{"location":"1400 LIGHT ST, Baltimore MD"},"locations":[{"street":"1400 Light St","adminArea6":"","adminArea6Type":"Neighborhood","adminArea5":"Baltimore","adminArea5Type":"City","adminArea4":"Baltimore City","adminArea4Type":"County","adminArea3":"MD","adminArea3Type":"State","adminArea1":"US","adminArea1Type":"Country","postalCode":"21230-4515","geocodeQualityCode":"P1AAA","geocodeQuality":"POINT","dragPoint":false,"sideOfStreet":"R","linkId":"r20765570|p186480604|n27634933","unknownInput":"","type":"s","latLng":{"lat":39.274143,"lng":-76.611958},"displayLatLng":{"lat":39.274124,"lng":-76.612177}}]},{"providedLocation":{"location":"228 MONROE ST, Baltimore MD"},"locations":[{"street":"228 N Monroe St","adminArea6":"","adminArea6Type":"Neighborhood","adminArea5":"Baltimore","adminArea5Type":"City","adminArea4":"Baltimore City","adminArea4Type":"County","adminArea3":"MD","adminArea3Type":"State","adminArea1":"US","adminArea1Type":"Country","postalCode":"21223-1660","geocodeQualityCode":"P1BAA","geocodeQuality":"POINT","dragPoint":false,"sideOfStreet":"L","linkId":"r20862236|p204606933|n27780548","unknownInput":"","type":"s","latLng":{"lat":39.291395,"lng":-76.647103},"displayLatLng":{"lat":39.291378,"lng":-76.647329}}]},{"providedLocation":{"location":"1909 PULASKI ST, Baltimore MD"},"locations":[{"street":"1909 N Pulaski St","adminArea6":"","adminArea6Type":"Neighborhood","adminArea5":"Baltimore","adminArea5Type":"City","adminArea4":"Baltimore City","adminArea4Type":"County","adminArea3":"MD","adminArea3Type":"State","adminArea1":"US","adminArea1Type":"Country","postalCode":"21217-1249","geocodeQualityCode":"P1BAA","geocodeQuality":"POINT","dragPoint":false,"sideOfStreet":"R","linkId":"r23196828|p193124712|n30881944","unknownInput":"","type":"s","latLng":{"lat":39.31022,"lng":-76.651326},"displayLatLng":{"lat":39.310225,"lng":-76.651096}}]},{"providedLocation":{"location":"801 FORT AVE, Baltimore MD"},"locations":[{"street":"801 E Fort Ave","adminArea6":"","adminArea6Type":"Neighborhood","adminArea5":"Baltimore","adminArea5Type":"City","adminArea4":"Baltimore City","adminArea4Type":"County","adminArea3":"MD","adminArea3Type":"State","adminArea1":"US","adminArea1Type":"Country","postalCode":"21230-5117","geocodeQualityCode":"P1BAA","geocodeQuality":"POINT","dragPoint":false,"sideOfStreet":"R","linkId":"r21001382|p195155211|n27940336","unknownInput":"","type":"s","latLng":{"lat":39.272078,"lng":-76.602567},"displayLatLng":{"lat":39.271919,"lng":-76.602667}}]},{"providedLocation":{"location":"890 LINDEN AVE, Baltimore MD"},"locations":[{"street":"890 Linden Ave","adminArea6":"","adminArea6Type":"Neighborhood","adminArea5":"Baltimore","adminArea5Type":"City","adminArea4":"Baltimore City","adminArea4Type":"County","adminArea3":"MD","adminArea3Type":"State","adminArea1":"US","adminArea1Type":"Country","postalCode":"21201-4622","geocodeQualityCode":"P1AAA","geocodeQuality":"POINT","dragPoint":false,"sideOfStreet":"L","linkId":"r21068421|p187290708|n28046918","unknownInput":"","type":"s","latLng":{"lat":39.30089,"lng":-76.62089},"displayLatLng":{"lat":39.300869,"lng":-76.621128}}]},{"providedLocation":{"location":"904 NORTH AVE, Baltimore MD"},"locations":[{"street":"[1000 - 1098] North Ave","adminArea6":"","adminArea6Type":"Neighborhood","adminArea5":"Essex","adminArea5Type":"City","adminArea4":"Baltimore","adminArea4Type":"County","adminArea3":"MD","adminArea3Type":"State","adminArea1":"US","adminArea1Type":"Country","postalCode":"21221-3749","geocodeQualityCode":"B3AAA","geocodeQuality":"STREET","dragPoint":false,"sideOfStreet":"L","linkId":"rnr6464426|i27545827","unknownInput":"","type":"s","latLng":{"lat":39.310157,"lng":-76.459961},"displayLatLng":{"lat":39.310308,"lng":-76.460092}}]},{"providedLocation":{"location":"851 HOLLINS ST, Baltimore MD"},"locations":[{"street":"851 Hollins St","adminArea6":"","adminArea6Type":"Neighborhood","adminArea5":"Baltimore","adminArea5Type":"City","adminArea4":"Baltimore City","adminArea4Type":"County","adminArea3":"MD","adminArea3Type":"State","adminArea1":"US","adminArea1Type":"Country","postalCode":"21201-1003","geocodeQualityCode":"P1AAA","geocodeQuality":"POINT","dragPoint":false,"sideOfStreet":"L","linkId":"r20851808|p186781840|n27747923","unknownInput":"","type":"s","latLng":{"lat":39.287905,"lng":-76.630418},"displayLatLng":{"lat":39.287733,"lng":-76.630401}}]},{"providedLocation":{"location":"600 LEHIGH ST, Baltimore MD"},"locations":[{"street":"600 S Lehigh St","adminArea6":"","adminArea6Type":"Neighborhood","adminArea5":"Baltimore","adminArea5Type":"City","adminArea4":"Baltimore City","adminArea4Type":"County","adminArea3":"MD","adminArea3Type":"State","adminArea1":"US","adminArea1Type":"Country","postalCode":"21224-4425","geocodeQualityCode":"P1BAA","geocodeQuality":"POINT","dragPoint":false,"sideOfStreet":"R","linkId":"r23182409|p188643113|n30880089","unknownInput":"","type":"s","latLng":{"lat":39.285871,"lng":-76.557962},"displayLatLng":{"lat":39.285854,"lng":-76.558164}}]},{"providedLocation":{"location":"1325 key HWY, Baltimore MD"},"locations":[{"street":"1325 Key Hwy","adminArea6":"","adminArea6Type":"Neighborhood","adminArea5":"Baltimore","adminArea5Type":"City","adminArea4":"Baltimore City","adminArea4Type":"County","adminArea3":"MD","adminArea3Type":"State","adminArea1":"US","adminArea1Type":"Country","postalCode":"21230-3981","geocodeQualityCode":"P1AAA","geocodeQuality":"POINT","dragPoint":false,"sideOfStreet":"L","linkId":"r24096562|p189329512|n32192222","unknownInput":"","type":"s","latLng":{"lat":39.274166,"lng":-76.60345},"displayLatLng":{"lat":39.274516,"lng":-76.603208}}]},{"providedLocation":{"location":"3515 EASTERN AVE, Baltimore MD"},"locations":[{"street":"3515 Eastern Ave","adminArea6":"","adminArea6Type":"Neighborhood","adminArea5":"Baltimore","adminArea5Type":"City","adminArea4":"Baltimore City","adminArea4Type":"County","adminArea3":"MD","adminArea3Type":"State","adminArea1":"US","adminArea1Type":"Country","postalCode":"21224-4124","geocodeQualityCode":"P1AAA","geocodeQuality":"POINT","dragPoint":false,"sideOfStreet":"R","linkId":"r20993669|p186029276|n27947132","unknownInput":"","type":"s","latLng":{"lat":39.286587,"lng":-76.567509},"displayLatLng":{"lat":39.286425,"lng":-76.567502}}]},{"providedLocation":{"location":"6412 HOLABIRD AVE, Baltimore MD"},"locations":[{"street":"6412 Holabird Ave","adminArea6":"","adminArea6Type":"Neighborhood","adminArea5":"Baltimore","adminArea5Type":"City","adminArea4":"Baltimore City","adminArea4Type":"County","adminArea3":"MD","adminArea3Type":"State","adminArea1":"US","adminArea1Type":"Country","postalCode":"21224-6243","geocodeQualityCode":"L1AAA","geocodeQuality":"ADDRESS","dragPoint":false,"sideOfStreet":"L","linkId":"rnr4722445|i31214023","unknownInput":"","type":"s","latLng":{"lat":39.272332,"lng":-76.536437},"displayLatLng":{"lat":39.272532,"lng":-76.536443}}]},{"providedLocation":{"location":"411 COLDSPRING LN, Baltimore MD"},"locations":[{"street":"411 E Cold Spring Ln","adminArea6":"","adminArea6Type":"Neighborhood","adminArea5":"Baltimore","adminArea5Type":"City","adminArea4":"Baltimore City","adminArea4Type":"County","adminArea3":"MD","adminArea3Type":"State","adminArea1":"US","adminArea1Type":"Country","postalCode":"21212-4709","geocodeQualityCode":"P1BAA","geocodeQuality":"POINT","dragPoint":false,"sideOfStreet":"R","linkId":"r23487187|p186825084|n31290785","unknownInput":"","type":"s","latLng":{"lat":39.346141,"lng":-76.610228},"displayLatLng":{"lat":39.345975,"lng":-76.610224}}]},{"providedLocation":{"location":"1515 CLEMENT ST, Baltimore MD"},"locations":[{"street":"1515 E Clement St","adminArea6":"","adminArea6Type":"Neighborhood","adminArea5":"Baltimore","adminArea5Type":"City","adminArea4":"Baltimore City","adminArea4Type":"County","adminArea3":"MD","adminArea3Type":"State","adminArea1":"US","adminArea1Type":"Country","postalCode":"21230-5248","geocodeQualityCode":"P1BAA","geocodeQuality":"POINT","dragPoint":false,"sideOfStreet":"R","linkId":"r22934245|p187546757|n30538712","unknownInput":"","type":"s","latLng":{"lat":39.2701,"lng":-76.592209},"displayLatLng":{"lat":39.269931,"lng":-76.592308}}]},{"providedLocation":{"location":"1131 GREENMOUNT, Baltimore MD"},"locations":[{"street":"","adminArea6":"","adminArea6Type":"Neighborhood","adminArea5":"Baltimore","adminArea5Type":"City","adminArea4":"Baltimore City","adminArea4Type":"County","adminArea3":"MD","adminArea3Type":"State","adminArea1":"US","adminArea1Type":"Country","postalCode":"","geocodeQualityCode":"A5XAX","geocodeQuality":"CITY","dragPoint":false,"sideOfStreet":"N","linkId":"282039684","unknownInput":"","type":"s","latLng":{"lat":39.290443,"lng":-76.612333},"displayLatLng":{"lat":39.290443,"lng":-76.612333}}]},{"providedLocation":{"location":"6602 REISTERSTOWN RD, Baltimore MD"},"locations":[{"street":"6602 Reisterstown Rd","adminArea6":"","adminArea6Type":"Neighborhood","adminArea5":"Baltimore","adminArea5Type":"City","adminArea4":"Baltimore City","adminArea4Type":"County","adminArea3":"MD","adminArea3Type":"State","adminArea1":"US","adminArea1Type":"Country","postalCode":"21215-2305","geocodeQualityCode":"P1AAA","geocodeQuality":"POINT","dragPoint":false,"sideOfStreet":"L","linkId":"r21080448|p190142436|n28056799","unknownInput":"","type":"s","latLng":{"lat":39.35725,"lng":-76.703973},"displayLatLng":{"lat":39.356999,"lng":-76.70428}}]},{"providedLocation":{"location":"398 29TH ST, Baltimore MD"},"locations":[{"street":"398 W 29th St","adminArea6":"","adminArea6Type":"Neighborhood","adminArea5":"Baltimore","adminArea5Type":"City","adminArea4":"Baltimore City","adminArea4Type":"County","adminArea3":"MD","adminArea3Type":"State","adminArea1":"US","adminArea1Type":"Country","postalCode":"21211-2912","geocodeQualityCode":"P1BAA","geocodeQuality":"POINT","dragPoint":false,"sideOfStreet":"R","linkId":"r20949192|p185465165|n27878415","unknownInput":"","type":"s","latLng":{"lat":39.32172,"lng":-76.62312},"displayLatLng":{"lat":39.32184,"lng":-76.623217}}]},{"providedLocation":{"location":"3001 FREDERICK AVE, Baltimore MD"},"locations":[{"street":"3001 Frederick Ave","adminArea6":"","adminArea6Type":"Neighborhood","adminArea5":"Baltimore","adminArea5Type":"City","adminArea4":"Baltimore City","adminArea4Type":"County","adminArea3":"MD","adminArea3Type":"State","adminArea1":"US","adminArea1Type":"Country","postalCode":"21223-2714","geocodeQualityCode":"P1AAA","geocodeQuality":"POINT","dragPoint":false,"sideOfStreet":"L","linkId":"r21108106|p186471835|n28090919","unknownInput":"","type":"s","latLng":{"lat":39.280058,"lng":-76.666643},"displayLatLng":{"lat":39.279884,"lng":-76.666672}}]},{"providedLocation":{"location":"2900 o donnell st, Baltimore MD"},"locations":[{"street":"2900 Odonnell St","adminArea6":"","adminArea6Type":"Neighborhood","adminArea5":"Baltimore","adminArea5Type":"City","adminArea4":"Baltimore City","adminArea4Type":"County","adminArea3":"MD","adminArea3Type":"State","adminArea1":"US","adminArea1Type":"Country","postalCode":"21224-4820","geocodeQualityCode":"P1AAA","geocodeQuality":"POINT","dragPoint":false,"sideOfStreet":"L","linkId":"r20959661|p185404958|n27891738","unknownInput":"","type":"s","latLng":{"lat":39.280357,"lng":-76.575238},"displayLatLng":{"lat":39.280543,"lng":-76.575248}}]},{"providedLocation":{"location":"2227 EASTERN AVE, Baltimore MD"},"locations":[{"street":"2227 Eastern Ave","adminArea6":"","adminArea6Type":"Neighborhood","adminArea5":"Baltimore","adminArea5Type":"City","adminArea4":"Baltimore City","adminArea4Type":"County","adminArea3":"MD","adminArea3Type":"State","adminArea1":"US","adminArea1Type":"Country","postalCode":"21231-3103","geocodeQualityCode":"P1AAA","geocodeQuality":"POINT","dragPoint":false,"sideOfStreet":"R","linkId":"r23077251|p186996388|n30727052","unknownInput":"","type":"s","latLng":{"lat":39.285922,"lng":-76.584971},"displayLatLng":{"lat":39.285751,"lng":-76.584981}}]},{"providedLocation":{"location":"1708 ALICEANNA ST, Baltimore MD"},"locations":[{"street":"1708 Aliceanna St","adminArea6":"","adminArea6Type":"Neighborhood","adminArea5":"Baltimore","adminArea5Type":"City","adminArea4":"Baltimore City","adminArea4Type":"County","adminArea3":"MD","adminArea3Type":"State","adminArea1":"US","adminArea1Type":"Country","postalCode":"21231-2901","geocodeQualityCode":"P1AAA","geocodeQuality":"POINT","dragPoint":false,"sideOfStreet":"L","linkId":"r20997909|p188569704|n27931274","unknownInput":"","type":"s","latLng":{"lat":39.283564,"lng":-76.592716},"displayLatLng":{"lat":39.28374,"lng":-76.592729}}]},{"providedLocation":{"location":"633 DUNCAN ST, Baltimore MD"},"locations":[{"street":"633 N Duncan St","adminArea6":"","adminArea6Type":"Neighborhood","adminArea5":"Baltimore","adminArea5Type":"City","adminArea4":"Baltimore City","adminArea4Type":"County","adminArea3":"MD","adminArea3Type":"State","adminArea1":"US","adminArea1Type":"Country","postalCode":"21205-2314","geocodeQualityCode":"P1BAA","geocodeQuality":"POINT","dragPoint":false,"sideOfStreet":"R","linkId":"r21055730|p187021233|n28009301","unknownInput":"","type":"s","latLng":{"lat":39.298312,"lng":-76.587242},"displayLatLng":{"lat":39.298325,"lng":-76.587029}}]},{"providedLocation":{"location":"4825 EASTERN AVE, Baltimore MD"},"locations":[{"street":"4825 Eastern Ave","adminArea6":"","adminArea6Type":"Neighborhood","adminArea5":"Baltimore","adminArea5Type":"City","adminArea4":"Baltimore City","adminArea4Type":"County","adminArea3":"MD","adminArea3Type":"State","adminArea1":"US","adminArea1Type":"Country","postalCode":"21224-4422","geocodeQualityCode":"L1AAA","geocodeQuality":"ADDRESS","dragPoint":false,"sideOfStreet":"R","linkId":"rnr3523746|i27496238","unknownInput":"","type":"s","latLng":{"lat":39.287072,"lng":-76.555592},"displayLatLng":{"lat":39.286872,"lng":-76.555583}}]},{"providedLocation":{"location":"3201 WOODLAND AVE, Baltimore MD"},"locations":[{"street":"3201 Woodland Ave","adminArea6":"","adminArea6Type":"Neighborhood","adminArea5":"Baltimore","adminArea5Type":"City","adminArea4":"Baltimore City","adminArea4Type":"County","adminArea3":"MD","adminArea3Type":"State","adminArea1":"US","adminArea1Type":"Country","postalCode":"21215-5928","geocodeQualityCode":"L1AAA","geocodeQuality":"ADDRESS","dragPoint":false,"sideOfStreet":"L","linkId":"rnr9887403|i31166722","unknownInput":"","type":"s","latLng":{"lat":39.345181,"lng":-76.671348},"displayLatLng":{"lat":39.345006,"lng":-76.671252}}]},{"providedLocation":{"location":"1230 FORT AVE, Baltimore MD"},"locations":[{"street":"1230 E Fort Ave","adminArea6":"","adminArea6Type":"Neighborhood","adminArea5":"Baltimore","adminArea5Type":"City","adminArea4":"Baltimore City","adminArea4Type":"County","adminArea3":"MD","adminArea3Type":"State","adminArea1":"US","adminArea1Type":"Country","postalCode":"21230-5105","geocodeQualityCode":"P1BAA","geocodeQuality":"POINT","dragPoint":false,"sideOfStreet":"L","linkId":"r20748876|p194490531|n27642673","unknownInput":"","type":"s","latLng":{"lat":39.270073,"lng":-76.596835},"displayLatLng":{"lat":39.270282,"lng":-76.596713}}]},{"providedLocation":{"location":"1703 ALICEANNA ST, Baltimore MD"},"locations":[{"street":"1703 Aliceanna St","adminArea6":"","adminArea6Type":"Neighborhood","adminArea5":"Baltimore","adminArea5Type":"City","adminArea4":"Baltimore City","adminArea4Type":"County","adminArea3":"MD","adminArea3Type":"State","adminArea1":"US","adminArea1Type":"Country","postalCode":"21231-2902","geocodeQualityCode":"P1AAA","geocodeQuality":"POINT","dragPoint":false,"sideOfStreet":"R","linkId":"r20997909|p188209212|n27931274","unknownInput":"","type":"s","latLng":{"lat":39.283557,"lng":-76.592864},"displayLatLng":{"lat":39.283374,"lng":-76.59285}}]},{"providedLocation":{"location":"322 CHARLES ST, Baltimore MD"},"locations":[{"street":"[210 - 298] Charles St","adminArea6":"","adminArea6Type":"Neighborhood","adminArea5":"Brooklyn","adminArea5Type":"City","adminArea4":"Baltimore City","adminArea4Type":"County","adminArea3":"MD","adminArea3Type":"State","adminArea1":"US","adminArea1Type":"Country","postalCode":"21225-2847","geocodeQualityCode":"B3AAA","geocodeQuality":"STREET","dragPoint":false,"sideOfStreet":"L","linkId":"rnr2361827|i31132320","unknownInput":"","type":"s","latLng":{"lat":39.23069,"lng":-76.610955},"displayLatLng":{"lat":39.23088,"lng":-76.61089}}]},{"providedLocation":{"location":"300 PRATT ST, Baltimore MD"},"locations":[{"street":"300 W Pratt St","adminArea6":"","adminArea6Type":"Neighborhood","adminArea5":"Baltimore","adminArea5Type":"City","adminArea4":"Baltimore City","adminArea4Type":"County","adminArea3":"MD","adminArea3Type":"State","adminArea1":"US","adminArea1Type":"Country","postalCode":"21201-2462","geocodeQualityCode":"P1BAA","geocodeQuality":"POINT","dragPoint":false,"sideOfStreet":"R","linkId":"r20854119|p187095017|n27760878","unknownInput":"","type":"s","latLng":{"lat":39.286289,"lng":-76.619646},"displayLatLng":{"lat":39.286484,"lng":-76.619657}}]},{"providedLocation":{"location":"408 BALTIMORE ST, Baltimore MD"},"locations":[{"street":"[3600 - 3714] Baltimore St","adminArea6":"","adminArea6Type":"Neighborhood","adminArea5":"Halethorpe","adminArea5Type":"City","adminArea4":"Baltimore","adminArea4Type":"County","adminArea3":"MD","adminArea3Type":"State","adminArea1":"US","adminArea1Type":"Country","postalCode":"21227-2214","geocodeQualityCode":"B3AAA","geocodeQuality":"STREET","dragPoint":false,"sideOfStreet":"R","linkId":"rnr795576|i27319618","unknownInput":"","type":"s","latLng":{"lat":39.24223,"lng":-76.63103},"displayLatLng":{"lat":39.242188,"lng":-76.631226}}]},{"providedLocation":{"location":"110 MOUNT ROYAL AVE, Baltimore MD"},"locations":[{"street":"110 W Mount Royal Ave","adminArea6":"","adminArea6Type":"Neighborhood","adminArea5":"Baltimore","adminArea5Type":"City","adminArea4":"Baltimore City","adminArea4Type":"County","adminArea3":"MD","adminArea3Type":"State","adminArea1":"US","adminArea1Type":"Country","postalCode":"21201-5732","geocodeQualityCode":"L1BAA","geocodeQuality":"ADDRESS","dragPoint":false,"sideOfStreet":"R","linkId":"rnr9850760|i28178313","unknownInput":"","type":"s","latLng":{"lat":39.305476,"lng":-76.617935},"displayLatLng":{"lat":39.305675,"lng":-76.617925}}]},{"providedLocation":{"location":"102 25TH ST, Baltimore MD"},"locations":[{"street":"102 E 25th St","adminArea6":"","adminArea6Type":"Neighborhood","adminArea5":"Baltimore","adminArea5Type":"City","adminArea4":"Baltimore City","adminArea4Type":"County","adminArea3":"MD","adminArea3Type":"State","adminArea1":"US","adminArea1Type":"Country","postalCode":"21218-5214","geocodeQualityCode":"P1BAA","geocodeQuality":"POINT","dragPoint":false,"sideOfStreet":"L","linkId":"r20817214|p188239211|n27706027","unknownInput":"","type":"s","latLng":{"lat":39.317877,"lng":-76.615096},"displayLatLng":{"lat":39.318088,"lng":-76.615109}}]},{"providedLocation":{"location":"5142 PARK HEIGHTS AVE, Baltimore MD"},"locations":[{"street":"5142 Park Heights Ave","adminArea6":"","adminArea6Type":"Neighborhood","adminArea5":"Baltimore","adminArea5Type":"City","adminArea4":"Baltimore City","adminArea4Type":"County","adminArea3":"MD","adminArea3Type":"State","adminArea1":"US","adminArea1Type":"Country","postalCode":"21215-5817","geocodeQualityCode":"P1AAA","geocodeQuality":"POINT","dragPoint":false,"sideOfStreet":"L","linkId":"r23293804|p185981123|n31016468","unknownInput":"","type":"s","latLng":{"lat":39.348912,"lng":-76.675672},"displayLatLng":{"lat":39.3488,"lng":-76.675772}}]},{"providedLocation":{"location":"201 PRATT ST, Baltimore MD"},"locations":[{"street":"201 E Pratt St","adminArea6":"","adminArea6Type":"Neighborhood","adminArea5":"Baltimore","adminArea5Type":"City","adminArea4":"Baltimore City","adminArea4Type":"County","adminArea3":"MD","adminArea3Type":"State","adminArea1":"US","adminArea1Type":"Country","postalCode":"21202-1023","geocodeQualityCode":"P1BAA","geocodeQuality":"POINT","dragPoint":false,"sideOfStreet":"R","linkId":"r20849534|p274870287|n27757472","unknownInput":"","type":"s","latLng":{"lat":39.286611,"lng":-76.610968},"displayLatLng":{"lat":39.286225,"lng":-76.610956}}]},{"providedLocation":{"location":"1926 MONROE ST, Baltimore MD"},"locations":[{"street":"1926 N Monroe St","adminArea6":"","adminArea6Type":"Neighborhood","adminArea5":"Baltimore","adminArea5Type":"City","adminArea4":"Baltimore City","adminArea4Type":"County","adminArea3":"MD","adminArea3Type":"State","adminArea1":"US","adminArea1Type":"Country","postalCode":"21217-1650","geocodeQualityCode":"P1BAA","geocodeQuality":"POINT","dragPoint":false,"sideOfStreet":"L","linkId":"r20812950|p187446374|n27725932","unknownInput":"","type":"s","latLng":{"lat":39.31077,"lng":-76.648207},"displayLatLng":{"lat":39.31076,"lng":-76.648502}}]},{"providedLocation":{"location":"1061 CHARLES ST, Baltimore MD"},"locations":[{"street":"[211 - 299] Charles St","adminArea6":"","adminArea6Type":"Neighborhood","adminArea5":"Brooklyn","adminArea5Type":"City","adminArea4":"Baltimore City","adminArea4Type":"County","adminArea3":"MD","adminArea3Type":"State","adminArea1":"US","adminArea1Type":"Country","postalCode":"21225-2846","geocodeQualityCode":"B3AAA","geocodeQuality":"STREET","dragPoint":false,"sideOfStreet":"R","linkId":"rnr2361827|i31134039","unknownInput":"","type":"s","latLng":{"lat":39.23069,"lng":-76.610955},"displayLatLng":{"lat":39.230501,"lng":-76.611019}}]},{"providedLocation":{"location":"21 EUTAW ST, Baltimore MD"},"locations":[{"street":"21 S Eutaw St","adminArea6":"","adminArea6Type":"Neighborhood","adminArea5":"Baltimore","adminArea5Type":"City","adminArea4":"Baltimore City","adminArea4Type":"County","adminArea3":"MD","adminArea3Type":"State","adminArea1":"US","adminArea1Type":"Country","postalCode":"21201-1613","geocodeQualityCode":"P1BAA","geocodeQuality":"POINT","dragPoint":false,"sideOfStreet":"L","linkId":"r20910313|p197113745|n27836371","unknownInput":"","type":"s","latLng":{"lat":39.287656,"lng":-76.620818},"displayLatLng":{"lat":39.287665,"lng":-76.620609}}]},{"providedLocation":{"location":"2706 dillon st, Baltimore MD"},"locations":[{"street":"2706 Dillon St","adminArea6":"","adminArea6Type":"Neighborhood","adminArea5":"Baltimore","adminArea5Type":"City","adminArea4":"Baltimore City","adminArea4Type":"County","adminArea3":"MD","adminArea3Type":"State","adminArea1":"US","adminArea1Type":"Country","postalCode":"21224-4706","geocodeQualityCode":"P1AAA","geocodeQuality":"POINT","dragPoint":false,"sideOfStreet":"L","linkId":"r20964767|p186715015|n27894889","unknownInput":"","type":"s","latLng":{"lat":39.281098,"lng":-76.57798},"displayLatLng":{"lat":39.281274,"lng":-76.57801}}]}]}
